<DateTime11:44:03,2017-04-12>$GPRMC,085848.00,A,4335.4665,N,00126.4602,E,0.0,102.0,130417,,*3C\r\n$TLBTI,12.1,V,55.0,F,*79\r\n$SDDBT,4.7,f,1.4,M,0.7,F*07\r\n<DateTime/>
<DateTime11:44:04,2017-04-12>$GPRMC,085848.00,A,4335.4665,N,00126.4602,E,0.0,102.0,130417,,*3C\r\n$TLBTI,12.1,V,55.0,F,*79\r\n$SDDBT,4.7,f,1.4,M,0.7,F*07\r\n<DateTime/>
<DateTime11:44:05,2017-04-12>$GPRMC,085849.00,A,4335.4666,N,00126.4600,E,0.0,102.0,130417,,*3C\r\n$TLBTI,12.1,V,55.0,F,*79\r\n$SDDBT,3.7,f,1.1,M,0.6,F*04\r\n$GPRMC,085850.00,A,4335.4666,N,00126.4599,E,0.0,102.0,130417,,*37\r\n<DateTime/>
<DateTime11:44:06,2017-04-12>$TLBTI,12.1,V,55.0,F,*79\r\n$SDDBT,4.3,f,1.3,M,0.7,F*04\r\n$GPRMC,085851.00,A,4335.4667,N,00126.4594,E,0.0,102.0,130417,,*3A\r\n<DateTime/>
<DateTime11:44:07,2017-04-12>$TLBTI,12.1,V,55.0,F,*79\r\n$SDDBT,4.4,f,1.3,M,0.7,F*03\r\n$GPRMC,085852.00,A,4335.4668,N,00126.4592,E,0.0,102.0,130417,,*30\r\n<DateTime/>
<DateTime11:44:08,2017-04-12>$TLBTI,12.1,V,55.0,F,*79\r\n$SDDBT,4.3,f,1.3,M,0.7,F*04\r\n$GPRMC,085853.00,A,4335.4668,N,00126.4591,E,0.0,103.0,130417,,*33\r\n$TLBTI,12.1,V,55.0,F,*79\r\n<DateTime/>
<DateTime11:44:09,2017-04-12>$SDDBT,4.3,f,1.3,M,0.7,F*04\r\n$GPRMC,085854.00,A,4335.4668,N,00126.4591,E,0.0,102.0,130417,,*35\r\n$TLBTI,12.1,V,55.0,F,*79\r\n<DateTime/>
<DateTime11:44:10,2017-04-12>$SDDBT,4.7,f,1.4,M,0.7,F*07\r\n$GPRMC,085855.00,A,4335.4667,N,00126.4590,E,0.0,103.0,130417,,*3B\r\n$TLBTI,12.1,V,55.0,F,*79\r\n<DateTime/>
<DateTime11:44:11,2017-04-12>$SDDBT,4.6,f,1.4,M,0.7,F*06\r\n$GPRMC,085856.00,A,4335.4667,N,00126.4590,E,0.0,103.0,130417,,*38\r\n$TLBTI,12.1,V,55.0,F,*79\r\n<DateTime/>
<DateTime11:44:12,2017-04-12>$SDDBT,3.4,f,1.0,M,0.5,F*05\r\n$GPRMC,085857.00,A,4335.4667,N,00126.4590,E,0.0,103.0,130417,,*39\r\n$TLBTI,12.1,V,55.0,F,*79\r\n$SDDBT,3.9,f,1.2,M,0.6,F*09\r\n<DateTime/>
<DateTime11:44:13,2017-04-12>$GPRMC,085858.00,A,4335.4667,N,00126.4590,E,0.0,103.0,130417,,*36\r\n$TLBTI,12.1,V,55.0,F,*79\r\n$SDDBT,4.1,f,1.2,M,0.6,F*06\r\n<DateTime/>
<DateTime11:44:14,2017-04-12>$GPRMC,085858.00,A,4335.4669,N,00126.4590,E,0.0,103.0,130417,,*38\r\n$TLBTI,12.1,V,55.0,F,*79\r\n$SDDBT,4.5,f,1.3,M,0.7,F*02\r\n<DateTime/>
<DateTime11:44:15,2017-04-12>$GPRMC,085859.00,A,4335.4669,N,00126.4591,E,0.0,103.0,130417,,*38\r\n$TLBTI,12.1,V,55.0,F,*79\r\n$SDDBT,3.9,f,1.2,M,0.6,F*09\r\n$GPRMC,085900.00,A,4335.4670,N,00126.4590,E,0.0,104.0,130417,,*3B\r\n<DateTime/>
<DateTime11:44:16,2017-04-12>$TLBTI,12.1,V,55.0,F,*79\r\n$SDDBT,3.7,f,1.1,M,0.6,F*04\r\n$GPRMC,085901.00,A,4335.4671,N,00126.4590,E,0.0,104.0,130417,,*3B\r\n<DateTime/>
<DateTime11:44:17,2017-04-12>$TLBTI,12.1,V,55.0,F,*79\r\n$SDDBT,3.7,f,1.1,M,0.6,F*04\r\n$GPRMC,085902.00,A,4335.4673,N,00126.4589,E,0.0,105.0,130417,,*33\r\n<DateTime/>
<DateTime11:44:18,2017-04-12>$TLBTI,12.1,V,55.0,F,*79\r\n$SDDBT,3.7,f,1.1,M,0.6,F*04\r\n$GPRMC,085903.00,A,4335.4673,N,00126.4589,E,0.0,105.0,130417,,*32\r\n$TLBTI,12.1,V,55.0,F,*79\r\n<DateTime/>
<DateTime11:44:19,2017-04-12>$SDDBT,3.3,f,1.0,M,0.5,F*02\r\n$GPRMC,085904.00,A,4335.4675,N,00126.4589,E,0.1,106.0,130417,,*31\r\n$TLBTI,12.1,V,55.0,F,*79\r\n<DateTime/>
<DateTime11:44:20,2017-04-12>$SDDBT,3.3,f,1.0,M,0.5,F*02\r\n$GPRMC,085905.00,A,4335.4677,N,00126.4590,E,0.0,106.0,130417,,*3B\r\n$TLBTI,12.1,V,55.0,F,*79\r\n<DateTime/>
<DateTime11:44:21,2017-04-12>$SDDBT,3.3,f,1.0,M,0.5,F*02\r\n$GPRMC,085906.00,A,4335.4677,N,00126.4591,E,0.0,107.0,130417,,*38\r\n$TLBTI,12.1,V,55.0,F,*79\r\n$SDDBT,3.1,f,0.9,M,0.5,F*08\r\n<DateTime/>
<DateTime11:44:22,2017-04-12>$GPRMC,085907.00,A,4335.4676,N,00126.4593,E,0.0,108.0,130417,,*35\r\n$TLBTI,12.1,V,55.0,F,*79\r\n$SDDBT,3.2,f,0.9,M,0.5,F*0B\r\n<DateTime/>
<DateTime11:44:23,2017-04-12>$GPRMC,085907.00,A,4335.4676,N,00126.4593,E,0.0,108.0,130417,,*35\r\n$TLBTI,12.1,V,55.0,F,*79\r\n$SDDBT,2.6,f,0.8,M,0.4,F*0E\r\n<DateTime/>
<DateTime11:44:24,2017-04-12>$GPRMC,085908.00,A,4335.4675,N,00126.4593,E,0.0,109.0,130417,,*38\r\n$TLBTI,12.1,V,55.0,F,*79\r\n$SDDBT,3.5,f,1.0,M,0.5,F*04\r\n$GPRMC,085909.00,A,4335.4674,N,00126.4592,E,0.0,109.0,130417,,*39\r\n<DateTime/>
<DateTime11:44:25,2017-04-12>$TLBTI,12.1,V,55.0,F,*79\r\n$SDDBT,3.5,f,1.0,M,0.5,F*04\r\n$GPRMC,085910.00,A,4335.4673,N,00126.4592,E,0.0,110.0,130417,,*3E\r\n<DateTime/>
<DateTime11:44:26,2017-04-12>$TLBTI,12.1,V,55.0,F,*79\r\n$SDDBT,3.1,f,0.9,M,0.5,F*08\r\n$GPRMC,085911.00,A,4335.4672,N,00126.4592,E,0.0,109.0,130417,,*36\r\n<DateTime/>
<DateTime11:44:27,2017-04-12>$TLBTI,12.1,V,55.0,F,*79\r\n$SDDBT,3.1,f,0.9,M,0.5,F*08\r\n$GPRMC,085912.00,A,4335.4672,N,00126.4592,E,0.2,109.0,130417,,*37\r\n$TLBTI,12.1,V,55.0,F,*79\r\n<DateTime/>
<DateTime11:44:28,2017-04-12>$SDDBT,3.2,f,0.9,M,0.5,F*0B\r\n$GPRMC,085913.00,A,4335.4668,N,00126.4592,E,0.2,109.0,130417,,*3D\r\n$TLBTI,12.1,V,55.0,F,*79\r\n<DateTime/>
<DateTime11:44:29,2017-04-12>$SDDBT,2.8,f,0.8,M,0.4,F*00\r\n$GPRMC,085914.00,A,4335.4668,N,00126.4593,E,0.3,113.0,130417,,*31\r\n$TLBTI,12.1,V,55.0,F,*79\r\n<DateTime/>
<DateTime11:44:30,2017-04-12>$SDDBT,2.9,f,0.9,M,0.4,F*00\r\n$GPRMC,085915.00,A,4335.4667,N,00126.4594,E,0.4,116.0,130417,,*3A\r\n$TLBTI,12.1,V,55.0,F,*79\r\n$SDDBT,3.0,f,0.9,M,0.5,F*09\r\n<DateTime/>
<DateTime11:44:31,2017-04-12>$GPRMC,085916.00,A,4335.4666,N,00126.4596,E,0.4,120.0,130417,,*3F\r\n$TLBTI,12.1,V,55.0,F,*79\r\n$SDDBT,2.8,f,0.8,M,0.4,F*00\r\n<DateTime/>
<DateTime11:44:32,2017-04-12>$GPRMC,085916.00,A,4335.4666,N,00126.4597,E,0.4,125.0,130417,,*3B\r\n$TLBTI,12.1,V,55.0,F,*79\r\n$SDDBT,2.1,f,0.6,M,0.3,F*00\r\n<DateTime/>
<DateTime11:44:33,2017-04-12>$GPRMC,085917.00,A,4335.4666,N,00126.4600,E,0.5,129.0,130417,,*3A\r\n$TLBTI,12.1,V,55.0,F,*79\r\n$SDDBT,2.5,f,0.7,M,0.4,F*02\r\n$GPRMC,085918.00,A,4335.4665,N,00126.4602,E,0.5,138.0,130417,,*34\r\n<DateTime/>
<DateTime11:44:34,2017-04-12>$TLBTI,12.1,V,55.0,F,*79\r\n$SDDBT,2.1,f,0.6,M,0.3,F*00\r\n$GPRMC,085919.00,A,4335.4665,N,00126.4604,E,0.5,143.0,130417,,*3F\r\n<DateTime/>
<DateTime11:44:35,2017-04-12>$TLBTI,12.1,V,55.0,F,*79\r\n$SDDBT,4.3,f,1.3,M,0.7,F*04\r\n$GPRMC,085920.00,A,4335.4665,N,00126.4604,E,0.5,146.0,130417,,*30\r\n<DateTime/>
<DateTime11:44:36,2017-04-12>$TLBTI,12.1,V,55.0,F,*79\r\n$SDDBT,3.3,f,1.0,M,0.5,F*02\r\n$GPRMC,085921.00,A,4335.4665,N,00126.4607,E,0.4,149.0,130417,,*3C\r\n$TLBTI,12.1,V,55.0,F,*79\r\n<DateTime/>
<DateTime11:44:37,2017-04-12>$SDDBT,4.7,f,1.4,M,0.7,F*07\r\n$GPRMC,085922.00,A,4335.4665,N,00126.4607,E,0.4,149.0,130417,,*3F\r\n$TLBTI,12.1,V,55.0,F,*79\r\n<DateTime/>
<DateTime11:44:38,2017-04-12>$SDDBT,4.5,f,1.3,M,0.7,F*02\r\n$GPRMC,085923.00,A,4335.4665,N,00126.4608,E,0.4,150.0,130417,,*39\r\n$TLBTI,12.1,V,55.0,F,*79\r\n<DateTime/>
<DateTime11:44:39,2017-04-12>$SDDBT,4.3,f,1.3,M,0.7,F*04\r\n$GPRMC,085924.00,A,4335.4666,N,00126.4609,E,0.4,150.0,130417,,*3C\r\n$TLBTI,12.1,V,55.0,F,*79\r\n$SDDBT,4.7,f,1.4,M,0.7,F*07\r\n<DateTime/>
<DateTime11:44:40,2017-04-12>$GPRMC,085925.00,A,4335.4668,N,00126.4609,E,0.4,149.0,130417,,*3B\r\n$TLBTI,12.1,V,55.0,F,*79\r\n$SDDBT,0.0,f,0.0,M,0.0,F*06\r\n<DateTime/>
<DateTime11:44:41,2017-04-12>$GPRMC,085926.00,A,4335.4670,N,00126.4610,E,0.4,150.0,130417,,*31\r\n$TLBTI,12.1,V,55.0,F,*79\r\n$SDDBT,0.0,f,0.0,M,0.0,F*06\r\n<DateTime/>
<DateTime11:44:42,2017-04-12>$GPRMC,085927.00,A,4335.4671,N,00126.4611,E,0.4,151.0,130417,,*31\r\n$TLBTI,12.1,V,55.0,F,*79\r\n$SDDBT,0.0,f,0.0,M,0.0,F*06\r\n<DateTime/>
<DateTime11:44:43,2017-04-12>$GPRMC,085927.00,A,4335.4672,N,00126.4611,E,0.4,151.0,130417,,*32\r\n$TLBTI,12.1,V,55.0,F,*79\r\n$SDDBT,0.0,f,0.0,M,0.0,F*06\r\n$GPRMC,085928.00,A,4335.4672,N,00126.4611,E,0.3,151.0,130417,,*3A\r\n<DateTime/>
<DateTime11:44:44,2017-04-12>$TLBTI,12.1,V,55.0,F,*79\r\n$SDDBT,0.0,f,0.0,M,0.0,F*06\r\n$GPRMC,085929.00,A,4335.4672,N,00126.4612,E,0.2,151.0,130417,,*39\r\n<DateTime/>
<DateTime11:44:45,2017-04-12>$TLBTI,12.1,V,55.0,F,*79\r\n$SDDBT,0.0,f,0.0,M,0.0,F*06\r\n$GPRMC,085930.00,A,4335.4673,N,00126.4612,E,0.2,151.0,130417,,*30\r\n<DateTime/>
<DateTime11:44:46,2017-04-12>$TLBTI,12.1,V,55.0,F,*79\r\n$SDDBT,4.3,f,1.3,M,0.7,F*04\r\n$GPRMC,085931.00,A,4335.4673,N,00126.4612,E,0.2,152.0,130417,,*32\r\n$TLBTI,12.1,V,55.0,F,*79\r\n<DateTime/>
<DateTime11:44:47,2017-04-12>$SDDBT,4.7,f,1.4,M,0.7,F*07\r\n$GPRMC,085932.00,A,4335.4673,N,00126.4612,E,0.2,151.0,130417,,*32\r\n$TLBTI,12.1,V,55.0,F,*79\r\n<DateTime/>
<DateTime11:44:48,2017-04-12>$SDDBT,0.0,f,0.0,M,0.0,F*06\r\n$GPRMC,085933.00,A,4335.4674,N,00126.4613,E,0.2,151.0,130417,,*35\r\n$TLBTI,12.1,V,55.0,F,*79\r\n<DateTime/>
<DateTime11:44:49,2017-04-12>$SDDBT,0.0,f,0.0,M,0.0,F*06\r\n$GPRMC,085934.00,A,4335.4674,N,00126.4613,E,0.2,153.0,130417,,*30\r\n$TLBTI,12.1,V,55.0,F,*79\r\n$SDDBT,0.0,f,0.0,M,0.0,F*06\r\n<DateTime/>
<DateTime11:44:50,2017-04-12>$GPRMC,085935.00,A,4335.4674,N,00126.4614,E,0.1,153.0,130417,,*35\r\n$TLBTI,12.1,V,55.0,F,*79\r\n$SDDBT,0.0,f,0.0,M,0.0,F*06\r\n<DateTime/>
<DateTime11:44:51,2017-04-12>$GPRMC,085935.00,A,4335.4674,N,00126.4614,E,0.1,153.0,130417,,*35\r\n$TLBTI,12.1,V,55.0,F,*79\r\n$SDDBT,0.0,f,0.0,M,0.0,F*06\r\n<DateTime/>
<DateTime11:44:52,2017-04-12>$GPRMC,085936.00,A,4335.4674,N,00126.4614,E,0.1,152.0,130417,,*37\r\n$TLBTI,12.1,V,55.0,F,*79\r\n$SDDBT,4.5,f,1.3,M,0.7,F*02\r\n$GPRMC,085937.00,A,4335.4674,N,00126.4615,E,0.1,151.0,130417,,*34\r\n<DateTime/>
<DateTime11:44:53,2017-04-12>$TLBTI,12.1,V,55.0,F,*79\r\n$SDDBT,4.7,f,1.4,M,0.7,F*07\r\n$GPRMC,085938.00,A,4335.4675,N,00126.4615,E,0.1,152.0,130417,,*39\r\n<DateTime/>
<DateTime11:44:54,2017-04-12>$TLBTI,12.1,V,55.0,F,*79\r\n$SDDBT,4.7,f,1.4,M,0.7,F*07\r\n$GPRMC,085939.00,A,4335.4676,N,00126.4615,E,0.1,152.0,130417,,*3B\r\n<DateTime/>
<DateTime11:44:55,2017-04-12>$TLBTI,12.1,V,55.0,F,*79\r\n$SDDBT,0.0,f,0.0,M,0.0,F*06\r\n$GPRMC,085940.00,A,4335.4676,N,00126.4615,E,0.1,152.0,130417,,*35\r\n$TLBTI,12.1,V,55.0,F,*79\r\n<DateTime/>
<DateTime11:44:56,2017-04-12>$SDDBT,0.0,f,0.0,M,0.0,F*06\r\n$GPRMC,085941.00,A,4335.4677,N,00126.4615,E,0.0,152.0,130417,,*34\r\n$TLBTI,12.1,V,55.0,F,*79\r\n<DateTime/>
<DateTime11:44:57,2017-04-12>$SDDBT,0.0,f,0.0,M,0.0,F*06\r\n$GPRMC,085942.00,A,4335.4677,N,00126.4615,E,0.0,152.0,130417,,*37\r\n$TLBTI,12.1,V,55.0,F,*79\r\n<DateTime/>
<DateTime11:44:58,2017-04-12>$SDDBT,0.0,f,0.0,M,0.0,F*06\r\n$GPRMC,085943.00,A,4335.4677,N,00126.4615,E,0.0,152.0,130417,,*36\r\n$TLBTI,12.1,V,55.0,F,*79\r\n$SDDBT,0.0,f,0.0,M,0.0,F*06\r\n<DateTime/>
<DateTime11:44:59,2017-04-12>$GPRMC,085943.00,A,4335.4677,N,00126.4615,E,0.0,152.0,130417,,*36\r\n$TLBTI,12.1,V,55.0,F,*79\r\n$SDDBT,0.0,f,0.0,M,0.0,F*06\r\n<DateTime/>
<DateTime11:45:00,2017-04-12>$GPRMC,085944.00,A,4335.4677,N,00126.4615,E,0.0,152.0,130417,,*31\r\n$TLBTI,12.1,V,55.0,F,*79\r\n$SDDBT,4.2,f,1.2,M,0.7,F*04\r\n<DateTime/>
<DateTime11:45:01,2017-04-12>$GPRMC,085945.00,A,4335.4677,N,00126.4614,E,0.0,152.0,130417,,*31\r\n$TLBTI,12.1,V,55.0,F,*79\r\n$SDDBT,0.0,f,0.0,M,0.0,F*06\r\n$GPRMC,085946.00,A,4335.4676,N,00126.4614,E,0.0,151.0,130417,,*30\r\n<DateTime/>
<DateTime11:45:02,2017-04-12>$TLBTI,12.1,V,55.0,F,*79\r\n$SDDBT,0.0,f,0.0,M,0.0,F*06\r\n$GPRMC,085947.00,A,4335.4676,N,00126.4614,E,0.0,151.0,130417,,*31\r\n<DateTime/>
<DateTime11:45:03,2017-04-12>$TLBTI,12.1,V,55.0,F,*79\r\n$SDDBT,4.7,f,1.4,M,0.7,F*07\r\n$GPRMC,085948.00,A,4335.4676,N,00126.4614,E,0.0,151.0,130417,,*3E\r\n<DateTime/>
<DateTime11:45:04,2017-04-12>$TLBTI,12.1,V,55.0,F,*79\r\n$SDDBT,0.0,f,0.0,M,0.0,F*06\r\n$GPRMC,085949.00,A,4335.4675,N,00126.4614,E,0.0,151.0,130417,,*3C\r\n$TLBTI,12.1,V,55.0,F,*79\r\n<DateTime/>
<DateTime11:45:05,2017-04-12>$SDDBT,4.7,f,1.4,M,0.7,F*07\r\n$GPRMC,085950.00,A,4335.4674,N,00126.4614,E,0.0,151.0,130417,,*35\r\n$TLBTI,12.2,V,55.0,F,*7A\r\n<DateTime/>
<DateTime11:45:06,2017-04-12>$SDDBT,0.0,f,0.0,M,0.0,F*06\r\n$GPRMC,085951.00,A,4335.4674,N,00126.4613,E,0.0,151.0,130417,,*33\r\n$TLBTI,12.1,V,55.0,F,*79\r\n<DateTime/>
<DateTime11:45:07,2017-04-12>$SDDBT,5.2,f,1.5,M,0.8,F*0D\r\n$GPRMC,085952.00,A,4335.4674,N,00126.4613,E,0.0,151.0,130417,,*30\r\n$TLBTI,12.1,V,55.0,F,*79\r\n$SDDBT,0.0,f,0.0,M,0.0,F*06\r\n<DateTime/>
<DateTime11:45:08,2017-04-12>$GPRMC,085952.00,A,4335.4674,N,00126.4612,E,0.0,151.0,130417,,*31\r\n$TLBTI,12.1,V,55.0,F,*79\r\n$SDDBT,4.7,f,1.4,M,0.7,F*07\r\n<DateTime/>
<DateTime11:45:09,2017-04-12>$GPRMC,085953.00,A,4335.4673,N,00126.4612,E,0.0,151.0,130417,,*37\r\n$TLBTI,12.1,V,55.0,F,*79\r\n$SDDBT,4.7,f,1.4,M,0.7,F*07\r\n<DateTime/>
<DateTime11:45:10,2017-04-12>$GPRMC,085954.00,A,4335.4673,N,00126.4612,E,0.0,151.0,130417,,*30\r\n$TLBTI,12.1,V,55.0,F,*79\r\n$SDDBT,3.5,f,1.0,M,0.5,F*04\r\n$GPRMC,<DateTime/>
<DateTime11:45:11,2017-04-12>085955.00,A,4335.4672,N,00126.4612,E,0.0,151.0,130417,,*30\r\n$TLBTI,12.1,V,55.0,F,*79\r\n$SDDBT,4.7,f,1.4,M,0.7,F*07\r\n$GPRMC,085956.00,A,4335.4672,N,00126.4612,E,0.0,150.0,130417,,*32\r\n<DateTime/>
<DateTime11:45:12,2017-04-12>$TLBTI,12.1,V,55.0,F,*79\r\n$SDDBT,4.5,f,1.3,M,0.7,F*02\r\n$GPRMC,085957.00,A,4335.4671,N,00126.4612,E,0.0,150.0,130417,,*30\r\n<DateTime/>
<DateTime11:45:13,2017-04-12>$TLBTI,12.1,V,55.0,F,*79\r\n$SDDBT,7.0,f,2.1,M,1.1,F*02\r\n$GPRMC,085958.00,A,4335.4670,N,00126.4611,E,0.0,150.0,130417,,*3D\r\n<DateTime/>
<DateTime11:45:14,2017-04-12>$TLBTI,12.1,V,55.0,F,*79\r\n$SDDBT,0.0,f,0.0,M,0.0,F*06\r\n$GPRMC,085959.00,A,4335.4669,N,00126.4611,E,0.0,150.0,130417,,*34\r\n$TLBTI,12.1,V,55.0,F,*79\r\n<DateTime/>
<DateTime11:45:15,2017-04-12>$SDDBT,4.2,f,1.2,M,0.7,F*04\r\n$GPRMC,090000.00,A,4335.4668,N,00126.4611,E,0.0,150.0,130417,,*34\r\n$TLBTI,12.1,V,55.0,F,*79\r\n<DateTime/>
<DateTime11:45:16,2017-04-12>$SDDBT,0.0,f,0.0,M,0.0,F*06\r\n$GPRMC,090000.00,A,4335.4667,N,00126.4611,E,0.0,150.0,130417,,*3B\r\n$TLBTI,12.1,V,55.0,F,*79\r\n<DateTime/>
<DateTime11:45:17,2017-04-12>$SDDBT,0.0,f,0.0,M,0.0,F*06\r\n$GPRMC,090002.00,A,4335.4667,N,00126.4611,E,0.0,150.0,130417,,*39\r\n$TLBTI,12.1,V,55.0,F,*79\r\n$SDDBT,4.4,f,1.3,M,0.7,F*03\r\n<DateTime/>
<DateTime11:45:18,2017-04-12>$GPRMC,090002.00,A,4335.4666,N,00126.4610,E,0.0,150.0,130417,,*39\r\n$TLBTI,12.1,V,55.0,F,*79\r\n$SDDBT,4.4,f,1.3,M,0.7,F*03\r\n<DateTime/>
<DateTime11:45:19,2017-04-12>$GPRMC,090002.00,A,4335.4666,N,00126.4610,E,0.0,150.0,130417,,*39\r\n$TLBTI,12.1,V,55.0,F,*79\r\n$SDDBT,4.4,f,1.3,M,0.7,F*03\r\n<DateTime/>
<DateTime11:45:20,2017-04-12>$GPRMC,090002.00,A,4335.4666,N,00126.4610,E,0.0,150.0,130417,,*39\r\n$TLBTI,12.1,V,55.0,F,*79\r\n$SDDBT,4.4,f,1.3,M,0.7,F*03\r\n$GPRMC,090002.00,A,4335.4666,N,00126.4610,E,0.0,150.0,130417,,*39\r\n<DateTime/>
<DateTime11:45:21,2017-04-12>$TLBTI,12.1,V,55.0,F,*79\r\n$SDDBT,0.0,f,0.0,M,0.0,F*06\r\n$GPRMC,090006.00,A,4335.4664,N,00126.4608,E,0.0,149.0,130417,,*3E\r\n<DateTime/>
<DateTime11:45:22,2017-04-12>$TLBTI,12.1,V,55.0,F,*79\r\n$SDDBT,0.0,f,0.0,M,0.0,F*06\r\n$GPRMC,090006.00,A,4335.4664,N,00126.4608,E,0.0,150.0,130417,,*36\r\n<DateTime/>
<DateTime11:45:23,2017-04-12>$TLBTI,12.1,V,55.0,F,*79\r\n$SDDBT,0.0,f,0.0,M,0.0,F*06\r\n$GPRMC,090008.00,A,4335.4663,N,00126.4608,E,0.0,149.0,130417,,*37\r\n$TLBTI,12.1,V,55.0,F,*79\r\n<DateTime/>
<DateTime11:45:24,2017-04-12>$SDDBT,4.0,f,1.2,M,0.6,F*07\r\n$GPRMC,090009.00,A,4335.4663,N,00126.4608,E,0.0,149.0,130417,,*36\r\n$TLBTI,12.1,V,55.0,F,*79\r\n<DateTime/>
<DateTime11:45:25,2017-04-12>$SDDBT,0.0,f,0.0,M,0.0,F*06\r\n$GPRMC,090010.00,A,4335.4663,N,00126.4608,E,0.0,150.0,130417,,*36\r\n$TLBTI,12.1,V,55.0,F,*79\r\n<DateTime/>
<DateTime11:45:26,2017-04-12>$SDDBT,0.0,f,0.0,M,0.0,F*06\r\n$GPRMC,090011.00,A,4335.4662,N,00126.4608,E,0.0,149.0,130417,,*3E\r\n$TLBTI,12.1,V,55.0,F,*79\r\n$SDDBT,0.0,f,0.0,M,0.0,F*06\r\n<DateTime/>
<DateTime11:45:27,2017-04-12>$GPRMC,090012.00,A,4335.4662,N,00126.4607,E,0.0,149.0,130417,,*32\r\n$TLBTI,12.1,V,55.0,F,*79\r\n$SDDBT,4.7,f,1.4,M,0.7,F*07\r\n<DateTime/>
<DateTime11:45:28,2017-04-12>$GPRMC,090012.00,A,4335.4662,N,00126.4607,E,0.0,149.0,130417,,*32\r\n$TLBTI,12.1,V,55.0,F,*79\r\n$SDDBT,0.0,f,0.0,M,0.0,F*06\r\n<DateTime/>
<DateTime11:45:29,2017-04-12>$GPRMC,090013.00,A,4335.4662,N,00126.4607,E,0.0,149.0,130417,,*33\r\n$TLBTI,12.1,V,55.0,F,*79\r\n$SDDBT,5.5,f,1.6,M,0.9,F*08\r\n$GPRMC,090014.00,A,4335.4662,N,00126.4607,E,0.0,149.0,130417,,*34\r\n<DateTime/>
<DateTime11:45:30,2017-04-12>$TLBTI,12.1,V,55.0,F,*79\r\n$SDDBT,7.0,f,2.1,M,1.1,F*02\r\n$GPRMC,090015.00,A,4335.4662,N,00126.4608,E,0.0,148.0,130417,,*3B\r\n<DateTime/>
<DateTime11:45:31,2017-04-12>$TLBTI,12.1,V,55.0,F,*79\r\n$SDDBT,0.0,f,0.0,M,0.0,F*06\r\n$GPRMC,090016.00,A,4335.4662,N,00126.4608,E,0.0,148.0,130417,,*38\r\n<DateTime/>
<DateTime11:45:32,2017-04-12>$TLBTI,12.1,V,55.0,F,*79\r\n$SDDBT,4.5,f,1.3,M,0.7,F*02\r\n$GPRMC,090017.00,A,4335.4662,N,00126.4608,E,0.0,148.0,130417,,*39\r\n$TLBTI<DateTime/>
<DateTime11:45:33,2017-04-12>,12.1,V,55.0,F,*79\r\n$SDDBT,0.0,f,0.0,M,0.0,F*06\r\n$GPRMC,090018.00,A,4335.4662,N,00126.4608,E,0.0,148.0,130417,,*36\r\n$TLBTI,12.1,V,55.0,F,*79\r\n<DateTime/>
<DateTime11:45:34,2017-04-12>$SDDBT,0.0,f,0.0,M,0.0,F*06\r\n$GPRMC,090019.00,A,4335.4662,N,00126.4608,E,0.2,147.0,130417,,*3A\r\n$TLBTI,12.1,V,55.0,F,*79\r\n<DateTime/>
<DateTime11:45:35,2017-04-12>$SDDBT,0.0,f,0.0,M,0.0,F*06\r\n$GPRMC,090020.00,A,4335.4660,N,00126.4606,E,0.3,148.0,130417,,*32\r\n$TLBTI,12.1,V,55.0,F,*79\r\n$SDDBT,4.7,f,1.4,M,0.7,F*07\r\n<DateTime/>
<DateTime11:45:36,2017-04-12>$GPRMC,090021.00,A,4335.4660,N,00126.4605,E,0.3,147.0,130417,,*3F\r\n$TLBTI,12.1,V,55.0,F,*79\r\n$SDDBT,4.4,f,1.3,M,0.7,F*03\r\n<DateTime/>
<DateTime11:45:37,2017-04-12>$GPRMC,090021.00,A,4335.4659,N,00126.4604,E,0.3,147.0,130417,,*34\r\n$TLBTI,12.1,V,55.0,F,*79\r\n$SDDBT,4.4,f,1.3,M,0.7,F*03\r\n<DateTime/>
<DateTime11:45:38,2017-04-12>$GPRMC,090022.00,A,4335.4658,N,00126.4604,E,0.3,147.0,130417,,*36\r\n$TLBTI,12.1,V,55.0,F,*79\r\n$SDDBT,4.5,f,1.3,M,0.7,F*02\r\n$GPRMC,090023.00,A,4335.4657,N,00126.4603,E,0.3,148.0,130417,,*30\r\n<DateTime/>
<DateTime11:45:39,2017-04-12>$TLBTI,12.1,V,55.0,F,*79\r\n$SDDBT,2.9,f,0.9,M,0.4,F*00\r\n$GPRMC,090024.00,A,4335.4657,N,00126.4603,E,0.3,147.0,130417,,*38\r\n<DateTime/>
<DateTime11:45:40,2017-04-12>$TLBTI,12.1,V,55.0,F,*79\r\n$SDDBT,3.7,f,1.1,M,0.6,F*04\r\n$GPRMC,090025.00,A,4335.4657,N,00126.4602,E,0.2,148.0,130417,,*36\r\n<DateTime/>
<DateTime11:45:41,2017-04-12>$TLBTI,12.1,V,55.0,F,*79\r\n$SDDBT,3.4,f,1.0,M,0.5,F*05\r\n$GPRMC,090026.00,A,4335.4656,N,00126.4602,E,0.3,147.0,130417,,*3A\r\n$TLBTI,12.1,V,5<DateTime/>
<DateTime11:45:42,2017-04-12>5.0,F,*79\r\n$SDDBT,4.0,f,1.2,M,0.6,F*07\r\n$GPRMC,090027.00,A,4335.4656,N,00126.4601,E,0.3,147.0,130417,,*38\r\n$TLBTI,12.1,V,55.0,F,*79\r\n<DateTime/>
<DateTime11:45:43,2017-04-12>$SDDBT,4.4,f,1.3,M,0.7,F*03\r\n$GPRMC,090028.00,A,4335.4655,N,00126.4600,E,0.3,148.0,130417,,*3A\r\n$TLBTI,12.1,V,55.0,F,*79\r\n<DateTime/>
<DateTime11:45:44,2017-04-12>$SDDBT,2.1,f,0.6,M,0.3,F*00\r\n$GPRMC,090029.00,A,4335.4655,N,00126.4599,E,0.3,147.0,130417,,*37\r\n$TLBTI,12.1,V,55.0,F,*79\r\n<DateTime/>
<DateTime11:45:45,2017-04-12>$SDDBT,2.1,f,0.6,M,0.3,F*00\r\n$GPRMC,090030.00,A,4335.4656,N,00126.4597,E,0.3,147.0,130417,,*32\r\n$TLBTI,12.1,V,55.0,F,*79\r\n$SDDBT,2.2,f,0.6,M,0.3,F*03\r\n<DateTime/>
<DateTime11:45:46,2017-04-12>$GPRMC,090030.00,A,4335.4655,N,00126.4596,E,0.3,147.0,130417,,*30\r\n$TLBTI,12.1,V,55.0,F,*79\r\n$SDDBT,2.1,f,0.6,M,0.3,F*00\r\n<DateTime/>
<DateTime11:45:47,2017-04-12>$GPRMC,090031.00,A,4335.4655,N,00126.4596,E,0.3,146.0,130417,,*30\r\n$TLBTI,12.1,V,55.0,F,*79\r\n$SDDBT,2.3,f,0.7,M,0.3,F*03\r\n<DateTime/>
<DateTime11:45:48,2017-04-12>$GPRMC,090032.00,A,4335.4654,N,00126.4595,E,0.3,146.0,130417,,*31\r\n$TLBTI,12.1,V,55.0,F,*79\r\n$SDDBT,2.4,f,0.7,M,0.4,F*03\r\n$GPRMC,090033.00,A,4335.4654,N,00126.4595,E,0.2,143.0,130417,,*34\r\n<DateTime/>
<DateTime11:45:49,2017-04-12>$TLBTI,12.1,V,55.0,F,*79\r\n$SDDBT,2.1,f,0.6,M,0.3,F*00\r\n$GPRMC,090034.00,A,4335.4654,N,00126.4594,E,0.1,139.0,130417,,*3C\r\n<DateTime/>
<DateTime11:45:50,2017-04-12>$TLBTI,12.1,V,55.0,F,*79\r\n$SDDBT,2.3,f,0.7,M,0.3,F*03\r\n$GPRMC,090035.00,A,4335.4654,N,00126.4594,E,0.0,136.0,130417,,*33\r\n<DateTime/>
<DateTime11:45:51,2017-04-12>$TLBTI,12.1,V,55.0,F,*79\r\n$SDDBT,2.3,f,0.7,M,0.3,F*03\r\n$GPRMC,090036.00,A,4335.4659,N,00126.4596,E,0.0,129.0,130417,,*31\r\n$TLBTI,12.1,V,55.0,F,*79\r\n<DateTime/>
<DateTime11:45:52,2017-04-12>$SDDBT,2.1,f,0.6,M,0.3,F*00\r\n$GPRMC,090037.00,A,4335.4662,N,00126.4597,E,0.1,125.0,130417,,*34\r\n$TLBTI,12.1,V,54.7,F,*7F\r\n<DateTime/>
<DateTime11:45:53,2017-04-12>$SDDBT,2.1,f,0.6,M,0.3,F*00\r\n$GPRMC,090038.00,A,4335.4661,N,00126.4597,E,0.2,121.0,130417,,*3F\r\n$TLBTI,12.1,V,54.7,F,*7F\r\n<DateTime/>
<DateTime11:45:54,2017-04-12>$SDDBT,2.1,f,0.6,M,0.3,F*00\r\n$GPRMC,090039.00,A,4335.4661,N,00126.4597,E,0.2,118.0,130417,,*34\r\n$TLBTI,12.1,V,54.5,F,*7D\r\n$SDDBT,4.3,f,1.3,M,0.7,F*04\r\n<DateTime/>
<DateTime11:45:55,2017-04-12>$GPRMC,090039.00,A,4335.4661,N,00126.4599,E,0.2,116.0,130417,,*34\r\n$TLBTI,12.1,V,54.5,F,*7D\r\n$SDDBT,3.7,f,1.1,M,0.6,F*04\r\n<DateTime/>
<DateTime11:45:56,2017-04-12>$GPRMC,090041.00,A,4335.4662,N,00126.4600,E,0.1,113.0,130417,,*3D\r\n$TLBTI,12.1,V,54.4,F,*7C\r\n$SDDBT,3.5,f,1.0,M,0.5,F*04\r\n<DateTime/>
<DateTime11:45:57,2017-04-12>$GPRMC,090041.00,A,4335.4661,N,00126.4601,E,0.1,107.0,130417,,*3A\r\n$TLBTI,12.1,V,54.4,F,*7C\r\n$SDDBT,4.0,f,1.2,M,0.6,F*07\r\n$GPRMC,090042.00,A,4335.4661,N,00126.4601,E,0.0,98.0,130417,,*0F\r\n<DateTime/>
<DateTime11:45:58,2017-04-12>$TLBTI,12.1,V,54.4,F,*7C\r\n$SDDBT,4.4,f,1.3,M,0.7,F*03\r\n$GPRMC,090043.00,A,4335.4661,N,00126.4600,E,0.0,95.0,130417,,*02\r\n<DateTime/>
<DateTime11:45:59,2017-04-12>$TLBTI,12.1,V,54.4,F,*7C\r\n$SDDBT,3.8,f,1.1,M,0.6,F*0B\r\n$GPRMC,090044.00,A,4335.4661,N,00126.4600,E,0.0,93.0,130417,,*03\r\n<DateTime/>
<DateTime11:46:00,2017-04-12>$TLBTI,12.1,V,54.7,F,*7F\r\n$SDDBT,2.1,f,0.6,M,0.3,F*00\r\n$GPRMC,090045.00,A,4335.4659,N,00126.4600,E,0.0,90.0,130417,,*0A\r\n$TLBTI,12.1,V,54.7,F,*7F\r\n<DateTime/>
<DateTime11:46:01,2017-04-12>$SDDBT,2.1,f,0.6,M,0.3,F*00\r\n$GPRMC,090046.00,A,4335.4661,N,00126.4600,E,0.0,89.0,130417,,*0A\r\n$TLBTI,12.1,V,54.8,F,*70\r\n<DateTime/>
<DateTime11:46:02,2017-04-12>$SDDBT,4.5,f,1.3,M,0.7,F*02\r\n$GPRMC,090047.00,A,4335.4663,N,00126.4599,E,0.0,87.0,130417,,*04\r\n$TLBTI,12.1,V,54.8,F,*70\r\n<DateTime/>
<DateTime11:46:03,2017-04-12>$SDDBT,4.3,f,1.3,M,0.7,F*04\r\n$GPRMC,090047.00,A,4335.4664,N,00126.4599,E,0.0,87.0,130417,,*03\r\n$TLBTI,12.1,V,54.6,F,*7E\r\n$SDDBT,2.1,f,0.6,M,0.3,F*00\r\n<DateTime/>
<DateTime11:46:04,2017-04-12>$GPRMC,090049.00,A,4335.4665,N,00126.4600,E,0.0,85.0,130417,,*0D\r\n$TLBTI,12.1,V,54.6,F,*7E\r\n$SDDBT,2.1,f,0.6,M,0.3,F*00\r\n<DateTime/>
<DateTime11:46:05,2017-04-12>$GPRMC,090050.00,A,4335.4664,N,00126.4600,E,0.1,85.0,130417,,*05\r\n$TLBTI,12.1,V,54.8,F,*70\r\n$SDDBT,2.2,f,0.6,M,0.3,F*03\r\n<DateTime/>
<DateTime11:46:06,2017-04-12>$GPRMC,090050.00,A,4335.4663,N,00126.4601,E,0.1,85.0,130417,,*03\r\n$TLBTI,12.1,V,54.8,F,*70\r\n$SDDBT,2.1,f,0.6,M,0.3,F*00\r\n$GPRMC,090051.00,A,4335.4661,N,00126.4602,E,0.0,84.0,130417,,*03\r\n<DateTime/>
<DateTime11:46:07,2017-04-12>$TLBTI,12.1,V,54.8,F,*70\r\n$SDDBT,2.1,f,0.6,M,0.3,F*00\r\n$GPRMC,090052.00,A,4335.4660,N,00126.4601,E,0.0,84.0,130417,,*02\r\n<DateTime/>
<DateTime11:46:08,2017-04-12>$TLBTI,12.1,V,54.6,F,*7E\r\n$SDDBT,2.1,f,0.6,M,0.3,F*00\r\n$GPRMC,090053.00,A,4335.4660,N,00126.4601,E,0.0,84.0,130417,,*03\r\n<DateTime/>
<DateTime11:46:09,2017-04-12>$TLBTI,12.1,V,54.6,F,*7E\r\n$SDDBT,2.1,f,0.6,M,0.3,F*00\r\n$GPRMC,090054.00,A,4335.4658,N,00126.4601,E,0.0,84.0,130417,,*0F\r\n$TLBTI,12.1,V,54.8,F,*70\r\n<DateTime/>
<DateTime11:46:10,2017-04-12>$SDDBT,2.1,f,0.6,M,0.3,F*00\r\n$GPRMC,090055.00,A,4335.4657,N,00126.4602,E,0.0,83.0,130417,,*05\r\n$TLBTI,12.1,V,54.8,F,*70\r\n<DateTime/>
<DateTime11:46:11,2017-04-12>$SDDBT,2.1,f,0.6,M,0.3,F*00\r\n$GPRMC,090056.00,A,4335.4657,N,00126.4602,E,0.0,83.0,130417,,*06\r\n$TLBTI,12.1,V,54.9,F,*71\r\n<DateTime/>
<DateTime11:46:12,2017-04-12>$SDDBT,2.1,f,0.6,M,0.3,F*00\r\n$GPRMC,090057.00,A,4335.4656,N,00126.4602,E,0.0,83.0,130417,,*06\r\n$TLBTI,12.2,V,54.9,F,*72\r\n<DateTime/>
<DateTime11:46:13,2017-04-12>$SDDBT,2.2,f,0.6,M,0.3,F*03\r\n$GPRMC,090057.00,A,4335.4655,N,00126.4601,E,0.0,83.0,130417,,*06\r\n$TLBTI,12.2,V,54.9,F,*72\r\n$SDDBT,2.1,f,0.6,M,0.3,F*00\r\n<DateTime/>
<DateTime11:46:14,2017-04-12>$GPRMC,090058.00,A,4335.4655,N,00126.4601,E,0.0,83.0,130417,,*09\r\n$TLBTI,12.1,V,54.6,F,*7E\r\n$SDDBT,2.1,f,0.6,M,0.3,F*00\r\n<DateTime/>
<DateTime11:46:15,2017-04-12>$GPRMC,090059.00,A,4335.4655,N,00126.4601,E,0.0,83.0,130417,,*08\r\n$TLBTI,12.1,V,54.6,F,*7E\r\n$SDDBT,2.1,f,0.6,M,0.3,F*00\r\n<DateTime/>
<DateTime11:46:16,2017-04-12>$GPRMC,090100.00,A,4335.4655,N,00126.4601,E,0.0,82.0,130417,,*04\r\n$TLBTI,12.1,V,54.8,F,*70\r\n$SDDBT,2.1,f,0.6,M,0.3,F*00\r\n$GPRMC,090101.00,A,4335.4654,N,00126.4602,E,0.0,82.0,130417,,*07\r\n<DateTime/>
<DateTime11:46:17,2017-04-12>$TLBTI,12.1,V,54.9,F,*71\r\n$SDDBT,2.1,f,0.6,M,0.3,F*00\r\n$GPRMC,090102.00,A,4335.4654,N,00126.4602,E,0.0,82.0,130417,,*04\r\n<DateTime/>
<DateTime11:46:18,2017-04-12>$TLBTI,12.1,V,54.9,F,*71\r\n$SDDBT,2.1,f,0.6,M,0.3,F*00\r\n$GPRMC,090103.00,A,4335.4653,N,00126.4602,E,0.0,82.0,130417,,*02\r\n<DateTime/>
<DateTime11:46:19,2017-04-12>$TLBTI,12.1,V,54.9,F,*71\r\n$SDDBT,2.1,f,0.6,M,0.3,F*00\r\n$GPRMC,090104.00,A,4335.4653,N,00126.4602,E,0.0,82.0,130417,,*05\r\n$TLBTI,12.1,V,54.9,F,*71\r\n<DateTime/>
<DateTime11:46:20,2017-04-12>$SDDBT,2.2,f,0.6,M,0.3,F*03\r\n$GPRMC,090105.00,A,4335.4653,N,00126.4602,E,0.0,82.0,130417,,*04\r\n$TLBTI,12.1,V,54.9,F,*71\r\n<DateTime/>
<DateTime11:46:21,2017-04-12>$SDDBT,2.1,f,0.6,M,0.3,F*00\r\n$GPRMC,090106.00,A,4335.4652,N,00126.4601,E,0.0,82.0,130417,,*05\r\n$TLBTI,12.1,V,54.9,F,*71\r\n<DateTime/>
<DateTime11:46:22,2017-04-12>$SDDBT,2.1,f,0.6,M,0.3,F*00\r\n$GPRMC,090106.00,A,4335.4652,N,00126.4600,E,0.0,82.0,130417,,*04\r\n$TLBTI,12.1,V,54.9,F,*71\r\n$SDDBT,2.1,f,0.6,M,0.3,F*00\r\n<DateTime/>
<DateTime11:46:23,2017-04-12>$GPRMC,090107.00,A,4335.4652,N,00126.4600,E,0.0,81.0,130417,,*06\r\n$TLBTI,12.1,V,54.9,F,*71\r\n$SDDBT,2.1,f,0.6,M,0.3,F*00\r\n<DateTime/>
<DateTime11:46:24,2017-04-12>$GPRMC,090108.00,A,4335.4651,N,00126.4600,E,0.0,81.0,130417,,*0A\r\n$TLBTI,12.1,V,54.9,F,*71\r\n$SDDBT,2.1,f,0.6,M,0.3,F*00\r\n<DateTime/>
<DateTime11:46:25,2017-04-12>$GPRMC,090109.00,A,4335.4651,N,00126.4600,E,0.0,82.0,130417,,*08\r\n$TLBTI,12.1,V,54.9,F,*71\r\n$SDDBT,2.1,f,0.6,M,0.3,F*00\r\n$GPRMC,090110.00,A,4335.4652,N,00126.4600,E,0.0,81.0,130417,,*00\r\n<DateTime/>
<DateTime11:46:26,2017-04-12>$TLBTI,12.1,V,54.9,F,*71\r\n$SDDBT,2.1,f,0.6,M,0.3,F*00\r\n$GPRMC,090111.00,A,4335.4652,N,00126.4601,E,0.0,81.0,130417,,*00\r\n<DateTime/>
<DateTime11:46:27,2017-04-12>$TLBTI,12.1,V,54.6,F,*7E\r\n$SDDBT,2.1,f,0.6,M,0.3,F*00\r\n$GPRMC,090112.00,A,4335.4653,N,00126.4602,E,0.1,81.0,130417,,*00\r\n<DateTime/>
<DateTime11:46:28,2017-04-12>$TLBTI,12.1,V,54.6,F,*7E\r\n$SDDBT,2.1,f,0.6,M,0.3,F*00\r\n$GPRMC,090113.00,A,4335.4654,N,00126.4602,E,0.2,83.0,130417,,*07\r\n$TLBTI,12.1,V,54.8,F,*70\r\n<DateTime/>
<DateTime11:46:29,2017-04-12>$SDDBT,2.1,f,0.6,M,0.3,F*00\r\n$GPRMC,090114.00,A,4335.4655,N,00126.4602,E,0.3,82.0,130417,,*01\r\n$TLBTI,12.1,V,54.8,F,*70\r\n<DateTime/>
<DateTime11:46:30,2017-04-12>$SDDBT,2.2,f,0.6,M,0.3,F*03\r\n$GPRMC,090115.00,A,4335.4657,N,00126.4603,E,0.3,82.0,130417,,*03\r\n$TLBTI,12.1,V,54.9,F,*71\r\n<DateTime/>
<DateTime11:46:31,2017-04-12>$SDDBT,2.1,f,0.6,M,0.3,F*00\r\n$GPRMC,090115.00,A,4335.4658,N,00126.4603,E,0.3,82.0,130417,,*0C\r\n$TLBTI,12.1,V,54.9,F,*71\r\n$SDDBT,2.3,f,0.7,M,0.3,F*03\r\n<DateTime/>
<DateTime11:46:32,2017-04-12>$GPRMC,090117.00,A,4335.4659,N,00126.4603,E,0.4,82.0,130417,,*08\r\n$TLBTI,12.1,V,54.6,F,*7E\r\n$SDDBT,2.3,f,0.7,M,0.3,F*03\r\n<DateTime/>
<DateTime11:46:33,2017-04-12>$GPRMC,090117.00,A,4335.4661,N,00126.4603,E,0.3,81.0,130417,,*07\r\n$TLBTI,12.1,V,54.6,F,*7E\r\n$SDDBT,2.3,f,0.7,M,0.3,F*03\r\n<DateTime/>
<DateTime11:46:34,2017-04-12>$GPRMC,090118.00,A,4335.4661,N,00126.4603,E,0.4,82.0,130417,,*0C\r\n$TLBTI,12.1,V,54.8,F,*70\r\n$SDDBT,2.1,f,0.6,M,0.3,F*00\r\n$GPRMC,090119.00,A,4335.4663,N,00126.4604,E,0.4,82.0,130417,,*08\r\n<DateTime/>
<DateTime11:46:35,2017-04-12>$TLBTI,12.1,V,54.8,F,*70\r\n$SDDBT,2.3,f,0.7,M,0.3,F*03\r\n$GPRMC,090120.00,A,4335.4663,N,00126.4604,E,0.4,83.0,130417,,*03\r\n<DateTime/>
<DateTime11:46:36,2017-04-12>$TLBTI,12.1,V,54.6,F,*7E\r\n$SDDBT,2.1,f,0.6,M,0.3,F*00\r\n$GPRMC,090121.00,A,4335.4665,N,00126.4603,E,0.5,84.0,130417,,*05\r\n<DateTime/>
<DateTime11:46:37,2017-04-12>$TLBTI,12.1,V,54.6,F,*7E\r\n$SDDBT,2.1,f,0.6,M,0.3,F*00\r\n$GPRMC,090122.00,A,4335.4666,N,00126.4603,E,0.6,84.0,130417,,*06\r\n$TLBTI,12.1,V,54.8,F,*70\r\n<DateTime/>
<DateTime11:46:38,2017-04-12>$SDDBT,2.1,f,0.6,M,0.3,F*00\r\n$GPRMC,090123.00,A,4335.4669,N,00126.4603,E,0.6,83.0,130417,,*0F\r\n$TLBTI,12.1,V,54.8,F,*70\r\n<DateTime/>
<DateTime11:46:39,2017-04-12>$SDDBT,2.2,f,0.6,M,0.3,F*03\r\n$GPRMC,090124.00,A,4335.4670,N,00126.4603,E,0.6,82.0,130417,,*01\r\n$TLBTI,12.1,V,54.8,F,*70\r\n<DateTime/>
<DateTime11:46:40,2017-04-12>$SDDBT,2.1,f,0.6,M,0.3,F*00\r\n$GPRMC,090125.00,A,4335.4672,N,00126.4603,E,0.6,82.0,130417,,*02\r\n$TLBTI,12.1,V,54.6,F,*7E\r\n$SDDBT,2.5,f,0.7,M,0.4,F*02\r\n<DateTime/>
<DateTime11:46:41,2017-04-12>$GPRMC,090126.00,A,4335.4674,N,00126.4603,E,0.6,82.0,130417,,*07\r\n$TLBTI,12.1,V,54.6,F,*7E\r\n$SDDBT,3.4,f,1.0,M,0.5,F*05\r\n<DateTime/>
<DateTime11:46:42,2017-04-12>$GPRMC,090126.00,A,4335.4676,N,00126.4602,E,0.6,82.0,130417,,*04\r\n$TLBTI,12.1,V,54.5,F,*7D\r\n$SDDBT,2.8,f,0.8,M,0.4,F*00\r\n<DateTime/>
<DateTime11:46:43,2017-04-12>$GPRMC,090127.00,A,4335.4678,N,00126.4602,E,0.6,82.0,130417,,*0B\r\n$TLBTI,12.1,V,54.5,F,*7D\r\n$SDDBT,2.7,f,0.8,M,0.4,F*0F\r\n<DateTime/>
<DateTime11:46:44,2017-04-12>$GPRMC,090128.00,A,4335.4679,N,00126.4603,E,0.6,83.0,130417,,*05\r\n$TLBTI,12.1,V,54.4,F,*7C\r\n$SDDBT,3.3,f,1.0,M,0.5,F*02\r\n$GPRMC,090129.00,A,4335.4679,N,00126.4603,E,0.7,83.0,130417,,*05\r\n<DateTime/>
<DateTime11:46:45,2017-04-12>$TLBTI,12.1,V,54.4,F,*7C\r\n$SDDBT,3.0,f,0.9,M,0.5,F*09\r\n$GPRMC,090130.00,A,4335.4682,N,00126.4603,E,0.7,82.0,130417,,*08\r\n<DateTime/>
<DateTime11:46:46,2017-04-12>$TLBTI,12.1,V,54.4,F,*7C\r\n$SDDBT,3.8,f,1.1,M,0.6,F*0B\r\n$GPRMC,090131.00,A,4335.4684,N,00126.4604,E,0.7,82.0,130417,,*08\r\n<DateTime/>
<DateTime11:46:47,2017-04-12>$TLBTI,12.1,V,54.4,F,*7C\r\n$SDDBT,4.1,f,1.2,M,0.6,F*06\r\n$GPRMC,090132.00,A,4335.4686,N,00126.4604,E,0.7,82.0,130417,,*09\r\n$TLBTI,12.1,V,54.4,F,*7C\r\n<DateTime/>
<DateTime11:46:48,2017-04-12>$SDDBT,4.2,f,1.2,M,0.7,F*04\r\n$GPRMC,090133.00,A,4335.4688,N,00126.4605,E,0.7,82.0,130417,,*07\r\n$TLBTI,12.1,V,54.4,F,*7C\r\n<DateTime/>
<DateTime11:46:49,2017-04-12>$SDDBT,4.4,f,1.3,M,0.7,F*03\r\n$GPRMC,090134.00,A,4335.4691,N,00126.4606,E,0.7,82.0,130417,,*0B\r\n$TLBTI,12.1,V,54.4,F,*7C\r\n<DateTime/>
<DateTime11:46:50,2017-04-12>$SDDBT,4.4,f,1.3,M,0.7,F*03\r\n$GPRMC,090135.00,A,4335.4693,N,00126.4606,E,0.7,83.0,130417,,*09\r\n$TLBTI,12.1,V,54.4,F,*7C\r\n$SDDBT,3.0,f,0.9,M,0.5,F*09\r\n<DateTime/>
<DateTime11:46:51,2017-04-12>$GPRMC,090135.00,A,4335.4695,N,00126.4607,E,0.7,83.0,130417,,*0E\r\n$TLBTI,12.1,V,54.4,F,*7C\r\n$SDDBT,3.0,f,0.9,M,0.5,F*09\r\n<DateTime/>
<DateTime11:46:52,2017-04-12>$GPRMC,090136.00,A,4335.4699,N,00126.4608,E,0.9,83.0,130417,,*00\r\n$TLBTI,12.1,V,54.4,F,*7C\r\n$SDDBT,3.6,f,1.1,M,0.6,F*05\r\n<DateTime/>
<DateTime11:46:53,2017-04-12>$GPRMC,090137.00,A,4335.4702,N,00126.4608,E,0.9,84.0,130417,,*05\r\n$TLBTI,12.1,V,54.4,F,*7C\r\n$SDDBT,4.3,f,1.3,M,0.7,F*04\r\n$GPRMC,090138.00,A,4335.4702,N,00126.4608,E,0.8,85.0,130417,,*0A\r\n<DateTime/>
<DateTime11:46:54,2017-04-12>$TLBTI,12.1,V,54.4,F,*7C\r\n$SDDBT,4.7,f,1.4,M,0.7,F*07\r\n$GPRMC,090139.00,A,4335.4700,N,00126.4609,E,0.8,86.0,130417,,*0B\r\n<DateTime/>
<DateTime11:46:55,2017-04-12>$TLBTI,12.1,V,54.4,F,*7C\r\n$SDDBT,4.6,f,1.4,M,0.7,F*06\r\n$GPRMC,090140.00,A,4335.4703,N,00126.4609,E,0.7,87.0,130417,,*08\r\n<DateTime/>
<DateTime11:46:56,2017-04-12>$TLBTI,12.1,V,54.4,F,*7C\r\n$SDDBT,2.8,f,0.8,M,0.4,F*00\r\n$GPRMC,090141.00,A,4335.4707,N,00126.4608,E,0.5,86.0,130417,,*0F\r\n$TLBTI,12.1,V,54.4,F,*7C\r\n<DateTime/>
<DateTime11:46:57,2017-04-12>$SDDBT,4.7,f,1.4,M,0.7,F*07\r\n$GPRMC,090142.00,A,4335.4708,N,00126.4608,E,0.4,85.0,130417,,*01\r\n$TLBTI,12.1,V,54.7,F,*7F\r\n<DateTime/>
<DateTime11:46:58,2017-04-12>$SDDBT,5.8,f,1.7,M,0.9,F*04\r\n$GPRMC,090143.00,A,4335.4708,N,00126.4606,E,0.5,87.0,130417,,*0D\r\n$TLBTI,12.1,V,54.7,F,*7F\r\n<DateTime/>
<DateTime11:46:59,2017-04-12>$SDDBT,6.1,f,1.8,M,1.0,F*09\r\n$GPRMC,090144.00,A,4335.4709,N,00126.4606,E,0.4,89.0,130417,,*04\r\n$TLBTI,12.1,V,54.5,F,*7D\r\n$SDDBT,6.0,f,1.8,M,1.0,F*08\r\n<DateTime/>
<DateTime11:47:00,2017-04-12>$GPRMC,090144.00,A,4335.4710,N,00126.4606,E,0.4,91.0,130417,,*05\r\n$TLBTI,12.1,V,54.5,F,*7D\r\n$SDDBT,6.0,f,1.8,M,1.0,F*08\r\n<DateTime/>
<DateTime11:47:01,2017-04-12>$GPRMC,090145.00,A,4335.4710,N,00126.4606,E,0.4,90.0,130417,,*05\r\n$TLBTI,12.1,V,54.4,F,*7C\r\n$SDDBT,6.1,f,1.8,M,1.0,F*09\r\n<DateTime/>
<DateTime11:47:02,2017-04-12>$GPRMC,090146.00,A,4335.4712,N,00126.4607,E,0.4,89.0,130417,,*0D\r\n$TLBTI,12.1,V,54.4,F,*7C\r\n$SDDBT,3.8,f,1.1,M,0.6,F*0B\r\n$GPRMC,090147.00,A,4335.4713,N,00126.4606,E,0.2,89.0,130417,,*0A\r\n<DateTime/>
<DateTime11:47:03,2017-04-12>$TLBTI,12.1,V,54.4,F,*7C\r\n$SDDBT,6.2,f,1.9,M,1.0,F*0B\r\n$GPRMC,090148.00,A,4335.4713,N,00126.4607,E,0.1,91.0,130417,,*0E\r\n<DateTime/>
<DateTime11:47:04,2017-04-12>$TLBTI,12.1,V,54.4,F,*7C\r\n$SDDBT,6.2,f,1.9,M,1.0,F*0B\r\n$GPRMC,090149.00,A,4335.4712,N,00126.4609,E,0.1,91.0,130417,,*00\r\n<DateTime/>
<DateTime11:47:05,2017-04-12>$TLBTI,12.1,V,54.4,F,*7C\r\n$SDDBT,6.2,f,1.9,M,1.0,F*0B\r\n$GPRMC,090150.00,A,4335.4712,N,00126.4610,E,0.0,90.0,130417,,*00\r\n$TLBTI,12.1,V,54.4,F,*7C\r\n<DateTime/>
<DateTime11:47:06,2017-04-12>$SDDBT,6.1,f,1.8,M,1.0,F*09\r\n$GPRMC,090151.00,A,4335.4712,N,00126.4611,E,0.0,89.0,130417,,*08\r\n$TLBTI,12.1,V,54.4,F,*7C\r\n<DateTime/>
<DateTime11:47:07,2017-04-12>$SDDBT,3.5,f,1.0,M,0.5,F*04\r\n$GPRMC,090152.00,A,4335.4712,N,00126.4611,E,0.0,91.0,130417,,*02\r\n$TLBTI,12.1,V,54.4,F,*7C\r\n<DateTime/>
<DateTime11:47:08,2017-04-12>$SDDBT,6.1,f,1.8,M,1.0,F*09\r\n$GPRMC,090153.00,A,4335.4711,N,00126.4613,E,0.1,93.0,130417,,*01\r\n$TLBTI,12.1,V,54.4,F,*7C\r\n$SDDBT,4.7,f,1.4,M,0.7,F*07\r\n<DateTime/>
<DateTime11:47:09,2017-04-12>$GPRMC,090154.00,A,4335.4710,N,00126.4613,E,0.1,94.0,130417,,*00\r\n$TLBTI,12.1,V,54.4,F,*7C\r\n$SDDBT,5.5,f,1.6,M,0.9,F*08\r\n<DateTime/>
<DateTime11:47:10,2017-04-12>$GPRMC,090154.00,A,4335.4710,N,00126.4613,E,0.1,98.0,130417,,*0C\r\n$TLBTI,12.1,V,54.4,F,*7C\r\n$SDDBT,5.3,f,1.6,M,0.8,F*0F\r\n<DateTime/>
<DateTime11:47:11,2017-04-12>$GPRMC,090155.00,A,4335.4710,N,00126.4613,E,0.0,98.0,130417,,*0C\r\n$TLBTI,12.1,V,54.4,F,*7C\r\n$SDDBT,3.3,f,1.0,M,0.5,F*02\r\n$GP<DateTime/>
<DateTime11:47:12,2017-04-12>RMC,090156.00,A,4335.4711,N,00126.4614,E,0.0,97.0,130417,,*06\r\n$TLBTI,12.1,V,54.4,F,*7C\r\n$SDDBT,6.1,f,1.8,M,1.0,F*09\r\n$GPRMC,090157.00,A,4335.4712,N,00126.4614,E,0.0,95.0,130417,,*06\r\n<DateTime/>
<DateTime11:47:13,2017-04-12>$TLBTI,12.1,V,54.4,F,*7C\r\n$SDDBT,6.1,f,1.8,M,1.0,F*09\r\n$GPRMC,090158.00,A,4335.4712,N,00126.4613,E,0.0,91.0,130417,,*0A\r\n<DateTime/>
<DateTime11:47:14,2017-04-12>$TLBTI,12.1,V,54.4,F,*7C\r\n$SDDBT,6.1,f,1.8,M,1.0,F*09\r\n$GPRMC,090159.00,A,4335.4713,N,00126.4613,E,0.1,91.0,130417,,*0B\r\n<DateTime/>
<DateTime11:47:15,2017-04-12>$TLBTI,12.1,V,54.4,F,*7C\r\n$SDDBT,3.4,f,1.0,M,0.5,F*05\r\n$GPRMC,090200.00,A,4335.4713,N,00126.4613,E,0.1,88.0,130417,,*0C\r\n$TLBTI,12.1,V,54.4,F,*7C\r\n<DateTime/>
<DateTime11:47:16,2017-04-12>$SDDBT,4.4,f,1.3,M,0.7,F*03\r\n$GPRMC,090201.00,A,4335.4714,N,00126.4612,E,0.1,86.0,130417,,*05\r\n$TLBTI,12.1,V,54.4,F,*7C\r\n<DateTime/>
<DateTime11:47:17,2017-04-12>$SDDBT,6.3,f,1.9,M,1.0,F*0A\r\n$GPRMC,090202.00,A,4335.4716,N,00126.4611,E,0.2,85.0,130417,,*07\r\n$TLBTI,12.1,V,54.4,F,*7C\r\n<DateTime/>
<DateTime11:47:18,2017-04-12>$SDDBT,3.9,f,1.2,M,0.6,F*09\r\n$GPRMC,090203.00,A,4335.4717,N,00126.4609,E,0.2,84.0,130417,,*0F\r\n$TLBTI,12.1,V,54.4,F,*7C\r\n$SDDBT,6.1,f,1.8,M,1.0,F*09\r\n<DateTime/>
<DateTime11:47:19,2017-04-12>$GPRMC,090204.00,A,4335.4718,N,00126.4608,E,0.2,83.0,130417,,*01\r\n$TLBTI,12.1,V,54.4,F,*7C\r\n$SDDBT,5.6,f,1.7,M,0.9,F*0A\r\n<DateTime/>
<DateTime11:47:20,2017-04-12>$GPRMC,090204.00,A,4335.4718,N,00126.4607,E,0.2,82.0,130417,,*0F\r\n$TLBTI,12.1,V,54.7,F,*7F\r\n$SDDBT,5.8,f,1.7,M,0.9,F*04\r\n<DateTime/>
<DateTime11:47:21,2017-04-12>$GPRMC,090205.00,A,4335.4718,N,00126.4607,E,0.2,81.0,130417,,*0D\r\n$TLBTI,12.1,V,54.7,F,*7F\r\n$SDDBT,6.3,f,1.9,M,1.0,F*0A\r\n$GPRMC,090206.00,A,4335.4718,N,00126.4609,E,0.3,81.0,130417,,*01\r\n<DateTime/>
<DateTime11:47:22,2017-04-12>$TLBTI,12.1,V,54.7,F,*7F\r\n$SDDBT,6.3,f,1.9,M,1.0,F*0A\r\n$GPRMC,090207.00,A,4335.4719,N,00126.4609,E,0.2,81.0,130417,,*00\r\n<DateTime/>
<DateTime11:47:23,2017-04-12>$TLBTI,12.1,V,54.8,F,*70\r\n$SDDBT,6.1,f,1.8,M,1.0,F*09\r\n$GPRMC,090208.00,A,4335.4719,N,00126.4609,E,0.2,80.0,130417,,*0E\r\n<DateTime/>
<DateTime11:47:24,2017-04-12>$TLBTI,12.1,V,54.8,F,*70\r\n$SDDBT,6.3,f,1.9,M,1.0,F*0A\r\n$GPRMC,090209.00,A,4335.4720,N,00126.4609,E,0.2,81.0,130417,,*04\r\n$TLBTI,12.1,V,54.6,F,*7E\r\n<DateTime/>
<DateTime11:47:25,2017-04-12>$SDDBT,6.3,f,1.9,M,1.0,F*0A\r\n$GPRMC,090210.00,A,4335.4720,N,00126.4608,E,0.2,81.0,130417,,*0D\r\n$TLBTI,12.1,V,54.6,F,*7E\r\n<DateTime/>
<DateTime11:47:26,2017-04-12>$SDDBT,4.0,f,1.2,M,0.6,F*07\r\n$GPRMC,090211.00,A,4335.4722,N,00126.4607,E,0.2,81.0,130417,,*01\r\n$TLBTI,12.1,V,54.5,F,*7D\r\n<DateTime/>
<DateTime11:47:27,2017-04-12>$SDDBT,6.2,f,1.9,M,1.0,F*0B\r\n$GPRMC,090212.00,A,4335.4723,N,00126.4607,E,0.2,81.0,130417,,*03\r\n$TLBTI,12.1,V,54.5,F,*7D\r\n$SDDBT,6.2,f,1.9,M,1.0,F*0B\r\n<DateTime/>
<DateTime11:47:28,2017-04-12>$GPRMC,090213.00,A,4335.4723,N,00126.4607,E,0.3,80.0,130417,,*02\r\n$TLBTI,12.1,V,54.4,F,*7C\r\n$SDDBT,4.3,f,1.3,M,0.7,F*04\r\n<DateTime/>
<DateTime11:47:29,2017-04-12>$GPRMC,090213.00,A,4335.4724,N,00126.4607,E,0.3,80.0,130417,,*05\r\n$TLBTI,12.1,V,54.4,F,*7C\r\n$SDDBT,5.3,f,1.6,M,0.8,F*0F\r\n<DateTime/>
<DateTime11:47:30,2017-04-12>$GPRMC,090214.00,A,4335.4724,N,00126.4607,E,0.2,80.0,130417,,*03\r\n$TLBTI,12.1,V,54.4,F,*7C\r\n$SDDBT,4.5,f,1.3,M,0.7,F*02\r\n$GPRMC,090215.00,A,4335.4724,N,00126.4609,E,0.2,80.0,130417,,*0C\r\n<DateTime/>
<DateTime11:47:31,2017-04-12>$TLBTI,12.1,V,54.4,F,*7C\r\n$SDDBT,6.1,f,1.8,M,1.0,F*09\r\n$GPRMC,090216.00,A,4335.4724,N,00126.4609,E,0.2,80.0,130417,,*0F\r\n<DateTime/>
<DateTime11:47:32,2017-04-12>$TLBTI,12.1,V,54.7,F,*7F\r\n$SDDBT,6.1,f,1.8,M,1.0,F*09\r\n$GPRMC,090217.00,A,4335.4724,N,00126.4609,E,0.1,81.0,130417,,*0C\r\n<DateTime/>
<DateTime11:47:33,2017-04-12>$TLBTI,12.1,V,54.7,F,*7F\r\n$SDDBT,6.0,f,1.8,M,1.0,F*08\r\n$GPRMC,090218.00,A,4335.4722,N,00126.4611,E,0.1,82.0,130417,,*0F\r\n$TLBTI,12.1,V,54.8,F,*70\r\n<DateTime/>
<DateTime11:47:34,2017-04-12>$SDDBT,4.0,f,1.2,M,0.6,F*07\r\n$GPRMC,090219.00,A,4335.4723,N,00126.4610,E,0.1,84.0,130417,,*08\r\n$TLBTI,12.1,V,54.8,F,*70\r\n<DateTime/>
<DateTime11:47:35,2017-04-12>$SDDBT,4.1,f,1.2,M,0.6,F*06\r\n$GPRMC,090220.00,A,4335.4723,N,00126.4611,E,0.1,88.0,130417,,*0F\r\n$TLBTI,12.1,V,54.9,F,*71\r\n<DateTime/>
<DateTime11:47:36,2017-04-12>$SDDBT,2.9,f,0.9,M,0.4,F*00\r\n$GPRMC,090221.00,A,4335.4720,N,00126.4612,E,0.1,93.0,130417,,*04\r\n$TLBTI,12.1,V,54.9,F,*71\r\n$SDDBT,2.4,f,0.7,M,0.4,F*03\r\n<DateTime/>
<DateTime11:47:37,2017-04-12>$GPRMC,090221.00,A,4335.4721,N,00126.4612,E,0.1,95.0,130417,,*03\r\n$TLBTI,12.1,V,54.6,F,*7E\r\n$SDDBT,2.2,f,0.6,M,0.3,F*03\r\n<DateTime/>
<DateTime11:47:38,2017-04-12>$GPRMC,090222.00,A,4335.4717,N,00126.4612,E,0.1,98.0,130417,,*08\r\n$TLBTI,12.1,V,54.6,F,*7E\r\n$SDDBT,2.9,f,0.9,M,0.4,F*00\r\n<DateTime/>
<DateTime11:47:39,2017-04-12>$GPRMC,090223.00,A,4335.4717,N,00126.4612,E,0.1,98.0,130417,,*09\r\n$TLBTI,12.1,V,54.6,F,*7E\r\n$SDDBT,2.9,f,0.9,M,0.4,F*00\r\n$GPRMC,090224.00,A,4335.4718,N,00126.4612,E,0.1,100.0,130417,,*31\r\n<DateTime/>
<DateTime11:47:40,2017-04-12>$TLBTI,12.1,V,54.5,F,*7D\r\n$SDDBT,2.5,f,0.7,M,0.4,F*02\r\n$GPRMC,090225.00,A,4335.4718,N,00126.4612,E,0.1,101.0,130417,,*31\r\n<DateTime/>
<DateTime11:47:41,2017-04-12>$TLBTI,12.1,V,54.5,F,*7D\r\n$SDDBT,2.4,f,0.7,M,0.4,F*03\r\n$GPRMC,090226.00,A,4335.4717,N,00126.4611,E,0.1,105.0,130417,,*3A\r\n<DateTime/>
<DateTime11:47:42,2017-04-12>$TLBTI,12.1,V,54.4,F,*7C\r\n$SDDBT,2.4,f,0.7,M,0.4,F*03\r\n$GPRMC,090227.00,A,4335.4718,N,00126.4613,E,0.0,106.0,130417,,*34\r\n$TLBTI,12.1,V,<DateTime/>
<DateTime11:47:43,2017-04-12>54.4,F,*7C\r\n$SDDBT,2.7,f,0.8,M,0.4,F*0F\r\n$GPRMC,090228.00,A,4335.4718,N,00126.4614,E,0.0,107.0,130417,,*3D\r\n$TLBTI,12.1,V,54.4,F,*7C\r\n<DateTime/>
<DateTime11:47:44,2017-04-12>$SDDBT,2.4,f,0.7,M,0.4,F*03\r\n$GPRMC,090229.00,A,4335.4717,N,00126.4613,E,0.0,107.0,130417,,*34\r\n$TLBTI,12.1,V,54.4,F,*7C\r\n<DateTime/>
<DateTime11:47:45,2017-04-12>$SDDBT,2.1,f,0.6,M,0.3,F*00\r\n$GPRMC,090230.00,A,4335.4718,N,00126.4613,E,0.0,108.0,130417,,*3C\r\n$TLBTI,12.1,V,54.4,F,*7C\r\n<DateTime/>
<DateTime11:47:46,2017-04-12>$SDDBT,2.3,f,0.7,M,0.3,F*03\r\n$GPRMC,090230.00,A,4335.4718,N,00126.4613,E,0.0,109.0,130417,,*3D\r\n$TLBTI,12.1,V,54.4,F,*7C\r\n$SDDBT,2.1,f,0.6,M,0.3,F*00\r\n<DateTime/>
<DateTime11:47:47,2017-04-12>$GPRMC,090231.00,A,4335.4718,N,00126.4614,E,0.0,107.0,130417,,*35\r\n$TLBTI,12.1,V,54.4,F,*7C\r\n$SDDBT,2.1,f,0.6,M,0.3,F*00\r\n<DateTime/>
<DateTime11:47:48,2017-04-12>$GPRMC,090232.00,A,4335.4718,N,00126.4614,E,0.0,100.0,130417,,*31\r\n$TLBTI,12.1,V,54.4,F,*7C\r\n$SDDBT,2.2,f,0.6,M,0.3,F*03\r\n<DateTime/>
<DateTime11:47:49,2017-04-12>$GPRMC,090233.00,A,4335.4719,N,00126.4613,E,0.0,92.0,130417,,*0C\r\n$TLBTI,12.1,V,54.4,F,*7C\r\n$SDDBT,2.3,f,0.7,M,0.3,F*03\r\n$GPRMC,090234.00,A,4335.4720,N,00126.4613,E,0.1,87.0,130417,,*04\r\n<DateTime/>
<DateTime11:47:50,2017-04-12>$TLBTI,12.1,V,54.4,F,*7C\r\n$SDDBT,2.1,f,0.6,M,0.3,F*00\r\n$GPRMC,090235.00,A,4335.4721,N,00126.4613,E,0.0,81.0,130417,,*03\r\n<DateTime/>
<DateTime11:47:51,2017-04-12>$TLBTI,12.1,V,54.4,F,*7C\r\n$SDDBT,2.2,f,0.6,M,0.3,F*03\r\n$GPRMC,090236.00,A,4335.4721,N,00126.4614,E,0.1,78.0,130417,,*00\r\n<DateTime/>
<DateTime11:47:52,2017-04-12>$TLBTI,12.1,V,54.4,F,*7C\r\n$SDDBT,4.7,f,1.4,M,0.7,F*07\r\n$GPRMC,090237.00,A,4335.4721,N,00126.4616,E,0.2,78.0,130417,,*00\r\n$TLBTI,12.1,V,54.4,F,*7C\r\n<DateTime/>
<DateTime11:47:53,2017-04-12>$SDDBT,4.7,f,1.4,M,0.7,F*07\r\n$GPRMC,090238.00,A,4335.4722,N,00126.4619,E,0.2,80.0,130417,,*04\r\n$TLBTI,12.1,V,54.4,F,*7C\r\n<DateTime/>
<DateTime11:47:54,2017-04-12>$SDDBT,2.6,f,0.8,M,0.4,F*0E\r\n$GPRMC,090239.00,A,4335.4721,N,00126.4618,E,0.3,81.0,130417,,*07\r\n$TLBTI,12.1,V,54.4,F,*7C\r\n<DateTime/>
<DateTime11:47:55,2017-04-12>$SDDBT,4.6,f,1.4,M,0.7,F*06\r\n$GPRMC,090239.00,A,4335.4721,N,00126.4618,E,0.3,80.0,130417,,*06\r\n$TLBTI,12.1,V,54.4,F,*7C\r\n$SDDBT,2.2,f,0.6,M,0.3,F*03\r\n<DateTime/>
<DateTime11:47:56,2017-04-12>$GPRMC,090240.00,A,4335.4722,N,00126.4619,E,0.2,80.0,130417,,*0B\r\n$TLBTI,12.1,V,54.4,F,*7C\r\n$SDDBT,4.1,f,1.2,M,0.6,F*06\r\n<DateTime/>
<DateTime11:47:57,2017-04-12>$GPRMC,090241.00,A,4335.4721,N,00126.4619,E,0.1,81.0,130417,,*0B\r\n$TLBTI,12.1,V,54.4,F,*7C\r\n$SDDBT,2.9,f,0.9,M,0.4,F*00\r\n<DateTime/>
<DateTime11:47:58,2017-04-12>$GPRMC,090242.00,A,4335.4721,N,00126.4618,E,0.1,81.0,130417,,*09\r\n$TLBTI,12.1,V,54.4,F,*7C\r\n$SDDBT,2.3,f,0.7,M,0.3,F*03\r\n$GPRMC,090243.00,A,4335.4720,N,00126.4618,E,0.1,83.0,130417,,*0B\r\n<DateTime/>
<DateTime11:47:59,2017-04-12>$TLBTI,12.1,V,54.4,F,*7C\r\n$SDDBT,2.9,f,0.9,M,0.4,F*00\r\n$GPRMC,090244.00,A,4335.4720,N,00126.4619,E,0.1,84.0,130417,,*0A\r\n<DateTime/>
<DateTime11:48:00,2017-04-12>$TLBTI,12.1,V,54.4,F,*7C\r\n$SDDBT,2.8,f,0.8,M,0.4,F*00\r\n$GPRMC,090245.00,A,4335.4721,N,00126.4620,E,0.1,86.0,130417,,*02\r\n<DateTime/>
<DateTime11:48:01,2017-04-12>$TLBTI,12.1,V,54.4,F,*7C\r\n$SDDBT,2.9,f,0.9,M,0.4,F*00\r\n$GPRMC,090246.00,A,4335.4720,N,00126.4621,E,0.0,88.0,130417,,*0E\r\n$TLBTI,12.1,V,54.4,F,*7C\r\n<DateTime/>
<DateTime11:48:02,2017-04-12>$SDDBT,2.7,f,0.8,M,0.4,F*0F\r\n$GPRMC,090247.00,A,4335.4718,N,00126.4623,E,0.1,83.0,130417,,*0C\r\n$TLBTI,12.1,V,54.4,F,*7C\r\n<DateTime/>
<DateTime11:48:03,2017-04-12>$SDDBT,2.8,f,0.8,M,0.4,F*00\r\n$GPRMC,090248.00,A,4335.4720,N,00126.4623,E,0.0,82.0,130417,,*08\r\n$TLBTI,12.1,V,54.4,F,*7C\r\n<DateTime/>
<DateTime11:48:04,2017-04-12>$SDDBT,2.8,f,0.8,M,0.4,F*00\r\n$GPRMC,090249.00,A,4335.4722,N,00126.4622,E,0.1,81.0,130417,,*08\r\n$TLBTI,12.1,V,54.7,F,*7F\r\n$SDDBT,2.6,f,0.8,M,0.4,F*0E\r\n<DateTime/>
<DateTime11:48:05,2017-04-12>$GPRMC,090250.00,A,4335.4725,N,00126.4624,E,0.0,82.0,130417,,*03\r\n$TLBTI,12.1,V,54.7,F,*7F\r\n$SDDBT,2.8,f,0.8,M,0.4,F*00\r\n<DateTime/>
<DateTime11:48:06,2017-04-12>$GPRMC,090250.00,A,4335.4725,N,00126.4624,E,0.0,87.0,130417,,*06\r\n$TLBTI,12.1,V,54.5,F,*7D\r\n$SDDBT,3.1,f,0.9,M,0.5,F*08\r\n<DateTime/>
<DateTime11:48:07,2017-04-12>$GPRMC,090251.00,A,4335.4725,N,00126.4625,E,0.0,88.0,130417,,*09\r\n$TLBTI,12.1,V,54.5,F,*7D\r\n$SDDBT,3.6,f,1.1,M,0.6,F*05\r\n$GPRMC,090252.00,A,4335.4726,N,00126.4624,E,0.2,88.0,130417,,*0A\r\n<DateTime/>
<DateTime11:48:08,2017-04-12>$TLBTI,12.1,V,54.7,F,*7F\r\n$SDDBT,4.0,f,1.2,M,0.6,F*07\r\n$GPRMC,090253.00,A,4335.4728,N,00126.4624,E,0.3,88.0,130417,,*04\r\n<DateTime/>
<DateTime11:48:09,2017-04-12>$TLBTI,12.1,V,54.7,F,*7F\r\n$SDDBT,4.2,f,1.2,M,0.7,F*04\r\n$GPRMC,090254.00,A,4335.4731,N,00126.4624,E,0.4,88.0,130417,,*0C\r\n<DateTime/>
<DateTime11:48:10,2017-04-12>$TLBTI,12.1,V,54.7,F,*7F\r\n$SDDBT,4.5,f,1.3,M,0.7,F*02\r\n$GPRMC,090255.00,A,4335.4733,N,00126.4623,E,0.4,88.0,130417,,*08\r\n$TLBTI,12.1,V,54<DateTime/>
<DateTime11:48:11,2017-04-12>.5,F,*7D\r\n$SDDBT,4.2,f,1.2,M,0.7,F*04\r\n$GPRMC,090256.00,A,4335.4734,N,00126.4623,E,0.3,88.0,130417,,*0B\r\n$TLBTI,12.1,V,54.5,F,*7D\r\n<DateTime/>
<DateTime11:48:12,2017-04-12>$SDDBT,4.4,f,1.3,M,0.7,F*03\r\n$GPRMC,090257.00,A,4335.4735,N,00126.4623,E,0.3,88.0,130417,,*0B\r\n$TLBTI,12.1,V,54.4,F,*7C\r\n<DateTime/>
<DateTime11:48:13,2017-04-12>$SDDBT,5.6,f,1.7,M,0.9,F*0A\r\n$GPRMC,090258.00,A,4335.4735,N,00126.4622,E,0.3,88.0,130417,,*05\r\n$TLBTI,12.1,V,54.4,F,*7C\r\n<DateTime/>
<DateTime11:48:14,2017-04-12>$SDDBT,5.9,f,1.8,M,0.9,F*0A\r\n$GPRMC,090259.00,A,4335.4735,N,00126.4622,E,0.3,88.0,130417,,*04\r\n$TLBTI,12.1,V,54.4,F,*7C\r\n$SDDBT,4.2,f,1.2,M,0.7,F*04\r\n<DateTime/>
<DateTime11:48:15,2017-04-12>$GPRMC,090259.00,A,4335.4735,N,00126.4622,E,0.3,88.0,130417,,*04\r\n$TLBTI,12.1,V,54.4,F,*7C\r\n$SDDBT,4.4,f,1.3,M,0.7,F*03\r\n<DateTime/>
<DateTime11:48:16,2017-04-12>$GPRMC,090300.00,A,4335.4736,N,00126.4622,E,0.2,87.0,130417,,*04\r\n$TLBTI,12.1,V,54.4,F,*7C\r\n$SDDBT,4.4,f,1.3,M,0.7,F*03\r\n<DateTime/>
<DateTime11:48:17,2017-04-12>$GPRMC,090301.00,A,4335.4736,N,00126.4623,E,0.2,87.0,130417,,*04\r\n$TLBTI,12.1,V,54.4,F,*7C\r\n$SDDBT,6.0,f,1.8,M,1.0,F*08\r\n$GPRMC,090302.00,A,4335.4737,N,00126.4622,E,0.2,87.0,130417,,*07\r\n<DateTime/>
<DateTime11:48:18,2017-04-12>$TLBTI,12.1,V,54.4,F,*7C\r\n$SDDBT,4.7,f,1.4,M,0.7,F*07\r\n$GPRMC,090303.00,A,4335.4738,N,00126.4622,E,0.2,86.0,130417,,*08\r\n<DateTime/>
<DateTime11:48:19,2017-04-12>$TLBTI,12.1,V,54.4,F,*7C\r\n$SDDBT,4.4,f,1.3,M,0.7,F*03\r\n$GPRMC,090304.00,A,4335.4738,N,00126.4621,E,0.2,87.0,130417,,*0D\r\n<DateTime/>
<DateTime11:48:20,2017-04-12>$TLBTI,12.1,V,54.4,F,*7C\r\n$SDDBT,6.0,f,1.8,M,1.0,F*08\r\n$GPRMC,090305.00,A,4335.4739,N,00126.4621,E,0.3,87.0,130417,,*0C\r\n$TLBTI,12.1,V,54.4,F,*7C\r\n<DateTime/>
<DateTime11:48:21,2017-04-12>$SDDBT,6.0,f,1.8,M,1.0,F*08\r\n$GPRMC,090306.00,A,4335.4740,N,00126.4621,E,0.3,88.0,130417,,*0E\r\n$TLBTI,12.1,V,54.4,F,*7C\r\n<DateTime/>
<DateTime11:48:22,2017-04-12>$SDDBT,6.0,f,1.8,M,1.0,F*08\r\n$GPRMC,090307.00,A,4335.4740,N,00126.4621,E,0.3,88.0,130417,,*0F\r\n$TLBTI,12.1,V,54.4,F,*7C\r\n<DateTime/>
<DateTime11:48:23,2017-04-12>$SDDBT,4.7,f,1.4,M,0.7,F*07\r\n$GPRMC,090308.00,A,4335.4741,N,00126.4620,E,0.4,87.0,130417,,*08\r\n$TLBTI,12.1,V,54.7,F,*7F\r\n$SDDBT,4.6,f,1.4,M,0.7,F*06\r\n<DateTime/>
<DateTime11:48:24,2017-04-12>$GPRMC,090308.00,A,4335.4742,N,00126.4619,E,0.4,86.0,130417,,*00\r\n$TLBTI,12.1,V,54.7,F,*7F\r\n$SDDBT,5.9,f,1.8,M,0.9,F*0A\r\n<DateTime/>
<DateTime11:48:25,2017-04-12>$GPRMC,090309.00,A,4335.4743,N,00126.4619,E,0.4,86.0,130417,,*00\r\n$TLBTI,12.1,V,54.7,F,*7F\r\n$SDDBT,5.9,f,1.8,M,0.9,F*0A\r\n<DateTime/>
<DateTime11:48:26,2017-04-12>$GPRMC,090310.00,A,4335.4745,N,00126.4618,E,0.5,85.0,130417,,*0D\r\n$TLBTI,12.1,V,54.5,F,*7D\r\n$SDDBT,6.0,f,1.8,M,1.0,F*08\r\n$GPRMC,090311.00,A,4335.4747,N,00126.4618,E,0.5,86.0,130417,,*0D\r\n<DateTime/>
<DateTime11:48:27,2017-04-12>$TLBTI,12.1,V,54.5,F,*7D\r\n$SDDBT,5.9,f,1.8,M,0.9,F*0A\r\n$GPRMC,090312.00,A,4335.4748,N,00126.4618,E,0.6,88.0,130417,,*0C\r\n<DateTime/>
<DateTime11:48:28,2017-04-12>$TLBTI,12.1,V,54.4,F,*7C\r\n$SDDBT,6.4,f,1.9,M,1.0,F*0D\r\n$GPRMC,090313.00,A,4335.4750,N,00126.4618,E,0.6,89.0,130417,,*05\r\n<DateTime/>
<DateTime11:48:29,2017-04-12>$TLBTI,12.1,V,54.4,F,*7C\r\n$SDDBT,3.3,f,1.0,M,0.5,F*02\r\n$GPRMC,090314.00,A,4335.4752,N,00126.4617,E,0.7,88.0,130417,,*0F\r\n$TLBTI,12.1,V,54.4,F,*7C\r\n<DateTime/>
<DateTime11:48:30,2017-04-12>$SDDBT,6.4,f,1.9,M,1.0,F*0D\r\n$GPRMC,090315.00,A,4335.4754,N,00126.4616,E,0.6,89.0,130417,,*09\r\n$TLBTI,12.1,V,54.4,F,*7C\r\n<DateTime/>
<DateTime11:48:31,2017-04-12>$SDDBT,4.6,f,1.4,M,0.7,F*06\r\n$GPRMC,090316.00,A,4335.4754,N,00126.4616,E,0.7,90.0,130417,,*03\r\n$TLBTI,12.1,V,54.4,F,*7C\r\n<DateTime/>
<DateTime11:48:32,2017-04-12>$SDDBT,5.5,f,1.6,M,0.9,F*08\r\n$GPRMC,090317.00,A,4335.4757,N,00126.4614,E,0.6,91.0,130417,,*03\r\n$TLBTI,12.1,V,54.4,F,*7C\r\n$SDDBT,6.2,f,1.9,M,1.0,F*0B\r\n<DateTime/>
<DateTime11:48:33,2017-04-12>$GPRMC,090318.00,A,4335.4757,N,00126.4614,E,0.6,91.0,130417,,*0C\r\n$TLBTI,12.1,V,54.4,F,*7C\r\n$SDDBT,5.5,f,1.6,M,0.9,F*08\r\n<DateTime/>
<DateTime11:48:34,2017-04-12>$GPRMC,090318.00,A,4335.4757,N,00126.4614,E,0.6,91.0,130417,,*0C\r\n$TLBTI,12.1,V,54.4,F,*7C\r\n$SDDBT,6.9,f,2.1,M,1.1,F*0A\r\n<DateTime/>
<DateTime11:48:35,2017-04-12>$GPRMC,090320.00,A,4335.4760,N,00126.4614,E,0.5,91.0,130417,,*00\r\n$TLBTI,12.1,V,54.4,F,*7C\r\n$SDDBT,7.5,f,2.3,M,1.2,F*06\r\n$GPRMC,090320.00,A,4335.4761,N,00126.4615,E,0.5,90.0,130417,,*01\r\n<DateTime/>
<DateTime11:48:36,2017-04-12>$TLBTI,12.1,V,54.4,F,*7C\r\n$SDDBT,7.6,f,2.3,M,1.2,F*05\r\n$GPRMC,090321.00,A,4335.4763,N,00126.4614,E,0.6,89.0,130417,,*08\r\n<DateTime/>
<DateTime11:48:37,2017-04-12>$TLBTI,12.1,V,54.4,F,*7C\r\n$SDDBT,7.8,f,2.4,M,1.3,F*0D\r\n$GPRMC,090322.00,A,4335.4765,N,00126.4613,E,0.7,88.0,130417,,*0A\r\n<DateTime/>
<DateTime11:48:38,2017-04-12>$TLBTI,12.1,V,54.4,F,*7C\r\n$SDDBT,8.0,f,2.4,M,1.3,F*0A\r\n$GPRMC,090323.00,A,4335.4767,N,00126.4614,E,0.8,86.0,130417,,*0F\r\n$TLBTI,12.1,V,54.4,F,*7C\r\n<DateTime/>
<DateTime11:48:39,2017-04-12>$SDDBT,7.9,f,2.4,M,1.3,F*0C\r\n$GPRMC,090324.00,A,4335.4770,N,00126.4612,E,1.0,86.0,130417,,*01\r\n$TLBTI,12.1,V,54.4,F,*7C\r\n<DateTime/>
<DateTime11:48:40,2017-04-12>$SDDBT,8.3,f,2.5,M,1.3,F*08\r\n$GPRMC,090325.00,A,4335.4773,N,00126.4612,E,1.0,85.0,130417,,*00\r\n$TLBTI,12.1,V,54.4,F,*7C\r\n<DateTime/>
<DateTime11:48:41,2017-04-12>$SDDBT,8.2,f,2.5,M,1.3,F*09\r\n$GPRMC,090326.00,A,4335.4776,N,00126.4612,E,1.0,85.0,130417,,*06\r\n$TLBTI,12.1,V,54.4,F,*7C\r\n$SDDBT,8.2,f,2.5,M,1.3,F*09\r\n<DateTime/>
<DateTime11:48:42,2017-04-12>$GPRMC,090327.00,A,4335.4779,N,00126.4612,E,1.0,84.0,130417,,*09\r\n$TLBTI,12.1,V,54.4,F,*7C\r\n$SDDBT,8.4,f,2.5,M,1.4,F*08\r\n<DateTime/>
<DateTime11:48:43,2017-04-12>$GPRMC,090328.00,A,4335.4781,N,00126.4612,E,1.0,83.0,130417,,*06\r\n$TLBTI,12.1,V,54.4,F,*7C\r\n<DateTime/>
<DateTime11:48:44,2017-04-12>$SDDBT,8.6,f,2.6,M,1.4,F*09\r\n$GPRMC,090329.00,A,4335.4784,N,00126.4613,E,0.9,83.0,130417,,*0B\r\n$TLBTI,12.1,V,54.4,F,*7C\r\n<DateTime/>
<DateTime11:48:45,2017-04-12>$SDDBT,8.6,f,2.6,M,1.4,F*09\r\n$GPRMC,090330.00,A,4335.4784,N,00126.4613,E,0.9,83.0,130417,,*03\r\n$TLBTI,12.1,V,54.4,F,*7C\r\n$SDDBT,8.9,f,2.7,M,1.4,F*07\r\n<DateTime/>
<DateTime11:48:46,2017-04-12>$GPRMC,090331.00,A,4335.4787,N,00126.4612,E,0.9,82.0,130417,,*01\r\n$TLBTI,12.1,V,54.4,F,*7C\r\n$SDDBT,8.9,f,2.7,M,1.4,F*07\r\n<DateTime/>
<DateTime11:48:47,2017-04-12>$GPRMC,090331.00,A,4335.4790,N,00126.4611,E,0.9,82.0,130417,,*04\r\n$TLBTI,12.1,V,54.4,F,*7C\r\n$SDDBT,8.9,f,2.7,M,1.4,F*07\r\n<DateTime/>
<DateTime11:48:48,2017-04-12>$GPRMC,090332.00,A,4335.4792,N,00126.4612,E,0.9,82.0,130417,,*06\r\n$TLBTI,12.1,V,54.4,F,*7C\r\n$SDDBT,8.9,f,2.7,M,1.4,F*07\r\n$GPRMC,090333.00,A,4335.4794,N,00126.4612,E,0.9,82.0,130417,,*01\r\n<DateTime/>
<DateTime11:48:49,2017-04-12>$TLBTI,12.1,V,54.4,F,*7C\r\n$SDDBT,8.6,f,2.6,M,1.4,F*09\r\n$GPRMC,090334.00,A,4335.4796,N,00126.4613,E,0.9,82.0,130417,,*05\r\n<DateTime/>
<DateTime11:48:50,2017-04-12>$TLBTI,12.1,V,54.4,F,*7C\r\n$SDDBT,8.7,f,2.6,M,1.4,F*08\r\n$GPRMC,090335.00,A,4335.4799,N,00126.4613,E,0.8,82.0,130417,,*0A\r\n<DateTime/>
<DateTime11:48:51,2017-04-12>$TLBTI,12.1,V,54.4,F,*7C\r\n$SDDBT,8.6,f,2.6,M,1.4,F*09\r\n$GPRMC,090336.00,A,4335.4801,N,00126.4613,E,0.9,82.0,130417,,*06\r\n$TLBTI,12.1,V,54.4,F,*7C\r\n<DateTime/>
<DateTime11:48:52,2017-04-12>$SDDBT,8.9,f,2.7,M,1.4,F*07\r\n$GPRMC,090337.00,A,4335.4801,N,00126.4613,E,0.9,82.0,130417,,*07\r\n<DateTime/>
<DateTime11:48:53,2017-04-12>$TLBTI,12.1,V,54.4,F,*7C\r\n$SDDBT,9.1,f,2.7,M,1.5,F*0F\r\n<DateTime/>
<DateTime11:48:54,2017-04-12>$GPRMC,090338.00,A,4335.4807,N,00126.4614,E,0.9,82.0,130417,,*09\r\n$TLBTI,12.1,V,54.4,F,*7C\r\n$SDDBT,9.0,f,2.7,M,1.5,F*0E\r\n$GPRMC,090339.00,A,4335.4809,N,00126.4615,E,0.9,82.0,130417,,*07\r\n<DateTime/>
<DateTime11:48:55,2017-04-12>$TLBTI,12.1,V,54.4,F,*7C\r\n$SDDBT,8.5,f,2.6,M,1.4,F*0A\r\n$GPRMC,090340.00,A,4335.4812,N,00126.4615,E,0.9,82.0,130417,,*03\r\n<DateTime/>
<DateTime11:48:56,2017-04-12>$TLBTI,12.1,V,54.4,F,*7C\r\n$SDDBT,9.0,f,2.7,M,1.5,F*0E\r\n$GPRMC,090341.00,A,4335.4815,N,00126.4616,E,1.0,82.0,130417,,*0E\r\n<DateTime/>
<DateTime11:48:57,2017-04-12>$TLBTI,12.1,V,54.4,F,*7C\r\n$SDDBT,8.3,f,2.5,M,1.3,F*08\r\n$GPRMC,090342.00,A,4335.4818,N,00126.4616,E,0.9,82.0,130417,,*08\r\n$TLBTI,12.1,V,54.4,F,*7C\r\n<DateTime/>
<DateTime11:48:58,2017-04-12>$SDDBT,8.9,f,2.7,M,1.4,F*07\r\n$GPRMC,090343.00,A,4335.4821,N,00126.4616,E,0.9,82.0,130417,,*03\r\n$TLBTI,12.1,V,54.4,F,*7C\r\n<DateTime/>
<DateTime11:48:59,2017-04-12>$SDDBT,8.3,f,2.5,M,1.3,F*08\r\n$GPRMC,090344.00,A,4335.4824,N,00126.4617,E,0.9,82.0,130417,,*00\r\n$TLBTI,12.1,V,54.4,F,*7C\r\n<DateTime/>
<DateTime11:49:00,2017-04-12>$SDDBT,8.9,f,2.7,M,1.4,F*07\r\n$GPRMC,090345.00,A,4335.4827,N,00126.4617,E,1.0,82.0,130417,,*0A\r\n<DateTime/>
<DateTime11:49:01,2017-04-12>$TLBTI,12.1,V,54.4,F,*7C\r\n$SDDBT,8.1,f,2.4,M,1.3,F*0B\r\n$GPRMC,090346.00,A,4335.4827,N,00126.4617,E,1.0,81.0,130417,,*0A\r\n<DateTime/>
<DateTime11:49:02,2017-04-12>$TLBTI,12.1,V,54.4,F,*7C\r\n$SDDBT,8.6,f,2.6,M,1.4,F*09\r\n$GPRMC,090347.00,A,4335.4830,N,00126.4618,E,0.8,82.0,130417,,*08\r\n<DateTime/>
<DateTime11:49:03,2017-04-12>$TLBTI,12.1,V,54.4,F,*7C\r\n$SDDBT,8.6,f,2.6,M,1.4,F*09\r\n$GPRMC,090348.00,A,4335.4832,N,00126.4619,E,0.8,82.0,130417,,*04\r\n$TLBTI,12.1,V,54.7,F,*7F\r\n<DateTime/>
<DateTime11:49:04,2017-04-12>$SDDBT,8.5,f,2.6,M,1.4,F*0A\r\n$GPRMC,090349.00,A,4335.4835,N,00126.4620,E,0.9,82.0,130417,,*09\r\n$TLBTI,12.1,V,54.7,F,*7F\r\n<DateTime/>
<DateTime11:49:05,2017-04-12>$SDDBT,8.6,f,2.6,M,1.4,F*09\r\n$GPRMC,090350.00,A,4335.4838,N,00126.4620,E,0.9,82.0,130417,,*0C\r\n<DateTime/>
<DateTime11:49:06,2017-04-12>$TLBTI,12.1,V,54.5,F,*7D\r\n$SDDBT,8.0,f,2.4,M,1.3,F*0A\r\n$GPRMC,090351.00,A,4335.4842,N,00126.4622,E,0.8,82.0,130417,,*03\r\n$TLBTI,12.1,V,54.5,F,*7D\r\n<DateTime/>
<DateTime11:49:07,2017-04-12>$SDDBT,8.0,f,2.4,M,1.3,F*0A\r\n$GPRMC,090352.00,A,4335.4844,N,00126.4622,E,0.8,82.0,130417,,*06\r\n$TLBTI,12.1,V,54.4,F,*7C\r\n<DateTime/>
<DateTime11:49:08,2017-04-12>$SDDBT,8.1,f,2.4,M,1.3,F*0B\r\n$GPRMC,090353.00,A,4335.4847,N,00126.4622,E,0.8,82.0,130417,,*04\r\n$TLBTI,12.1,V,54.4,F,*7C\r\n<DateTime/>
<DateTime11:49:09,2017-04-12>$SDDBT,8.0,f,2.4,M,1.3,F*0A\r\n$GPRMC,090354.00,A,4335.4847,N,00126.4622,E,0.9,82.0,130417,,*02\r\n$TLBTI,12.1,V,54.4,F,*7C\r\n$SDDBT,7.9,f,2.4,M,1.3,F*0C\r\n<DateTime/>
<DateTime11:49:10,2017-04-12>$GPRMC,090354.00,A,4335.4851,N,00126.4622,E,0.9,82.0,130417,,*05\r\n$TLBTI,12.1,V,54.4,F,*7C\r\n$SDDBT,8.3,f,2.5,M,1.3,F*08\r\n<DateTime/>
<DateTime11:49:11,2017-04-12>$GPRMC,090355.00,A,4335.4853,N,00126.4622,E,0.8,83.0,130417,,*06\r\n$TLBTI,12.1,V,54.4,F,*7C\r\n$SDDBT,8.3,f,2.5,M,1.3,F*08\r\n<DateTime/>
<DateTime11:49:12,2017-04-12>$GPRMC,090356.00,A,4335.4855,N,00126.4623,E,0.8,83.0,130417,,*02\r\n$TLBTI,12.1,V,54.4,F,*7C\r\n$SDDBT,8.3,f,2.5,M,1.3,F*08\r\n$GPRMC,090357.0<DateTime/>
<DateTime11:49:13,2017-04-12>0,A,4335.4859,N,00126.4623,E,0.8,83.0,130417,,*0F\r\n$TLBTI,12.1,V,54.4,F,*7C\r\n$SDDBT,8.0,f,2.4,M,1.3,F*0A\r\n$GPRMC,090358.00,A,4335.4861,N,00126.4623,E,0.8,83.0,130417,,*0B\r\n<DateTime/>
<DateTime11:49:14,2017-04-12>$TLBTI,12.1,V,54.4,F,*7C\r\n$SDDBT,7.9,f,2.4,M,1.3,F*0C\r\n$GPRMC,090359.00,A,4335.4862,N,00126.4623,E,0.8,84.0,130417,,*0E\r\n<DateTime/>
<DateTime11:49:15,2017-04-12>$TLBTI,12.1,V,54.4,F,*7C\r\n$SDDBT,8.5,f,2.6,M,1.4,F*0A\r\n$GPRMC,090400.00,A,4335.4865,N,00126.4623,E,0.8,83.0,130417,,*05\r\n<DateTime/>
<DateTime11:49:16,2017-04-12>$TLBTI,12.1,V,54.4,F,*7C\r\n$SDDBT,8.6,f,2.6,M,1.4,F*09\r\n$GPRMC,090401.00,A,4335.4867,N,00126.4624,E,0.8,83.0,130417,,*01\r\n$TLBTI,12.1,V,54.4,F,*7C\r\n<DateTime/>
<DateTime11:49:17,2017-04-12>$SDDBT,8.5,f,2.6,M,1.4,F*0A\r\n$GPRMC,090402.00,A,4335.4870,N,00126.4624,E,0.9,83.0,130417,,*05\r\n$TLBTI,12.1,V,54.4,F,*7C\r\n<DateTime/>
<DateTime11:49:18,2017-04-12>$SDDBT,8.3,f,2.5,M,1.3,F*08\r\n$GPRMC,090403.00,A,4335.4872,N,00126.4624,E,0.9,83.0,130417,,*06\r\n$TLBTI,12.1,V,54.4,F,*7C\r\n<DateTime/>
<DateTime11:49:19,2017-04-12>$SDDBT,8.2,f,2.5,M,1.3,F*09\r\n$GPRMC,090404.00,A,4335.4874,N,00126.4624,E,0.9,83.0,130417,,*07\r\n$TLBTI,12.1,V,54.4,F,*7C\r\n$SDDBT,8.3,f,2.5,M,1.3,F*08\r\n<DateTime/>
<DateTime11:49:20,2017-04-12>$GPRMC,090405.00,A,4335.4874,N,00126.4624,E,0.8,82.0,130417,,*06\r\n$TLBTI,12.1,V,54.4,F,*7C\r\n<DateTime/>
<DateTime11:49:21,2017-04-12>$SDDBT,8.0,f,2.4,M,1.3,F*0A\r\n$GPRMC,090406.00,A,4335.4880,N,00126.4627,E,0.9,81.0,130417,,*0F\r\n$TLBTI,12.1,V,54.4,F,*7C\r\n<DateTime/>
<DateTime11:49:22,2017-04-12>$SDDBT,7.4,f,2.2,M,1.2,F*06\r\n$GPRMC,090407.00,A,4335.4880,N,00126.4627,E,1.1,82.0,130417,,*04\r\n$TLBTI,12.1,V,54.4,F,*7C\r\n$SDDBT,8.5,f,2.6,M,1.4,F*0A\r\n<DateTime/>
<DateTime11:49:23,2017-04-12>$GPRMC,090408.00,A,4335.4885,N,00126.4628,E,1.1,82.0,130417,,*01\r\n$TLBTI,12.1,V,54.7,F,*7F\r\n<DateTime/>
<DateTime11:49:24,2017-04-12>$SDDBT,8.9,f,2.7,M,1.4,F*07\r\n$GPRMC,090409.00,A,4335.4889,N,00126.4629,E,1.0,82.0,130417,,*0C\r\n$TLBTI,12.1,V,54.7,F,*7F\r\n<DateTime/>
<DateTime11:49:25,2017-04-12>$SDDBT,8.9,f,2.7,M,1.4,F*07\r\n$GPRMC,090410.00,A,4335.4891,N,00126.4630,E,1.0,82.0,130417,,*05\r\n$TLBTI,12.1,V,54.8,F,*70\r\n$SDDBT,9.3,f,2.8,M,1.5,F*02\r\n<DateTime/>
<DateTime11:49:26,2017-04-12>$GPRMC,090411.00,A,4335.4894,N,00126.4631,E,0.9,82.0,130417,,*08\r\n$TLBTI,12.1,V,54.8,F,*70\r\n$SDDBT,9.4,f,2.8,M,1.5,F*05\r\n<DateTime/>
<DateTime11:49:27,2017-04-12>$GPRMC,090412.00,A,4335.4896,N,00126.4632,E,0.9,82.0,130417,,*0A\r\n$TLBTI,12.1,V,54.9,F,*71\r\n$SDDBT,9.5,f,2.9,M,1.5,F*05\r\n<DateTime/>
<DateTime11:49:28,2017-04-12>$GPRMC,090412.00,A,4335.4898,N,00126.4633,E,0.9,82.0,130417,,*05\r\n$TLBTI,12.1,V,54.9,F,*71\r\n$SDDBT,9.8,f,3.0,M,1.6,F*03\r\n$GPRMC,090413.00,A,4335.4898,N,00126.4633,E,0.8,82.0,130417,,*05\r\n<DateTime/>
<DateTime11:49:29,2017-04-12>$TLBTI,12.1,V,54.9,F,*71\r\n$SDDBT,10.1,f,3.0,M,1.6,F*32\r\n$GPRMC,090414.00,A,4335.4900,N,00126.4634,E,0.8,81.0,130417,,*06\r\n<DateTime/>
<DateTime11:49:30,2017-04-12>$TLBTI,12.1,V,54.9,F,*71\r\n$SDDBT,10.1,f,3.0,M,1.6,F*32\r\n$GPRMC,090415.00,A,4335.4902,N,00126.4635,E,0.8,81.0,130417,,*04\r\n<DateTime/>
<DateTime11:49:31,2017-04-12>$TLBTI,12.1,V,54.9,F,*71\r\n$SDDBT,10.2,f,3.1,M,1.7,F*31\r\n$GPRMC,090415.00,A,4335.4904,N,00126.4636,E,0.8,82.0,130417,,*02\r\n$TLBTI,12.1,V,54.9,F,*71\r\n<DateTime/>
<DateTime11:49:32,2017-04-12>$SDDBT,10.2,f,3.1,M,1.7,F*31\r\n$GPRMC,090417.00,A,4335.4905,N,00126.4636,E,0.7,81.0,130417,,*0D\r\n$TLBTI,12.1,V,54.9,F,*71\r\n<DateTime/>
<DateTime11:49:33,2017-04-12>$SDDBT,10.2,f,3.1,M,1.7,F*31\r\n$GPRMC,090418.00,A,4335.4906,N,00126.4637,E,0.6,81.0,130417,,*01\r\n$TLBTI,12.1,V,54.9,F,*71\r\n<DateTime/>
