<DateTime12:24:34,2017-04-12>\x00\x00\x00\x00\x00\x00\x00\x00\x00\x00\x00\x00\x00\x00\x00\x00\x00\x00\x00\x00\x00\x00\x00\x00\x00\x00\x00\x00\x00\x00\x00\x00\x00\x00\x00\x00\x00\x00\x00\x00\x00\x00\x00\x00\x00\x00\x00\x00\x00\x00\x00\x00\x00\x00\x00\x00\x00\x00\x00\x00\x00\x00\x00\x00\x00\x00\x00\x00\x00\x00\x00\x00\x00\x00\x00\x00\x00\x00\x00\x00\x00\x00\x00\x00\x00\x00\x00\x00\x00\x00\x00\x00\x00\x00\x00\x00\x00\x00\x00\x00\x00\x00\x00\x00\x00\x00\x00\x00\x00\x00\x00\x00\x00\x00\x00\x00\x00\x00\x00\x00\x00\x00\x00\x00\x00\x00\x00\x00\x00\x00\x00\x00\x00\x00\x00\x00\x00\x00\x00\x00\x00\x00\x00\x00\x00\x00\x00\x00\x00\x00\x00\x00\x00\x00\x00\x00\x00\x00\x00\x00\x00\x00\x00\x00\x00\x00\x00\x00\x00\x00\x00\x00\x00\x00\x00\x00\x00\x00\x00\x00\x00\x00\x00\x00\x00\x00\x00\x00\x00\x00\x00\x00\x00\x00\x00\x00\x00\x00\x00\x00\x00\x00\x00\x00\x00\x00\x00\x00\x00\x00\x00\x00\x00\x00\x00\x00\x00\x00\x00\x00\x00\x00\x00\x00\x00\x00\x00\x00\x00\x00\x00\x00\x00\x00\x00\x00$SDDBT,3.8,f,1.1,M,0.6,F*0B\r\n$GPRMC,114048.00,A,4335.6055,N,00126.5249,E,0.2,114.0,130417,,*35\r\n<DateTime/>
<DateTime12:24:35,2017-04-12>$TLBTI,12.0,V,62.4,F,*78\r\n$SDDBT,3.8,f,1.1,M,0.6,F*0B\r\n$GPRMC,114049.00,A,4335.6055,N,00126.5249,E,0.1,114.0,130417,,*37\r\n$TLBTI,12.0,V,62.4,F,*78\r\n<DateTime/>
<DateTime12:24:36,2017-04-12>$SDDBT,3.8,f,1.1,M,0.6,F*0B\r\n$GPRMC,114050.00,A,4335.6055,N,00126.5249,E,0.1,115.0,130417,,*3E\r\n$TLBTI,11.9,V,62.5,F,*73\r\n<DateTime/>
<DateTime12:24:37,2017-04-12>$SDDBT,3.8,f,1.1,M,0.6,F*0B\r\n$GPRMC,114051.00,A,4335.6055,N,00126.5249,E,0.1,115.0,130417,,*3F\r\n$TLBTI,11.9,V,62.5,F,*73\r\n<DateTime/>
<DateTime12:24:38,2017-04-12>$SDDBT,3.6,f,1.1,M,0.6,F*05\r\n$GPRMC,114051.00,A,4335.6055,N,00126.5249,E,0.1,115.0,130417,,*3F\r\n$TLBTI,11.9,V,62.2,F,*74\r\n<DateTime/>
<DateTime12:24:39,2017-04-12>$SDDBT,3.4,f,1.0,M,0.5,F*05\r\n$GPRMC,114053.00,A,4335.6056,N,00126.5249,E,0.1,115.0,130417,,*3E\r\n$TLBTI,11.9,V,62.2,F,*74\r\n$SDDBT,3.7,f,1.1,M,0.6,F*04\r\n<DateTime/>
<DateTime12:24:40,2017-04-12>$GPRMC,114054.00,A,4335.6056,N,00126.5249,E,0.1,116.0,130417,,*3A\r\n$TLBTI,11.9,V,62.1,F,*77\r\n$SDDBT,4.1,f,1.2,M,0.6,F*06\r\n<DateTime/>
<DateTime12:24:41,2017-04-12>$GPRMC,114054.00,A,4335.6056,N,00126.5249,E,0.1,116.0,130417,,*3A\r\n$TLBTI,11.9,V,62.1,F,*77\r\n$SDDBT,4.3,f,1.3,M,0.7,F*04\r\n<DateTime/>
<DateTime12:24:42,2017-04-12>$GPRMC,114055.00,A,4335.6057,N,00126.5249,E,0.1,115.0,130417,,*39\r\n$TLBTI,11.9,V,62.0,F,*76\r\n$SDDBT,4.4,f,1.3,M,0.7,F*03\r\n$GPRMC,114056.00,A,4335.6057,N,00126.5250,E,0.1,115.0,130417,,*32\r\n<DateTime/>
<DateTime12:24:43,2017-04-12>$TLBTI,11.9,V,62.0,F,*76\r\n$SDDBT,2.2,f,0.6,M,0.3,F*03\r\n$GPRMC,114057.00,A,4335.6058,N,00126.5250,E,0.1,115.0,130417,,*3C\r\n<DateTime/>
<DateTime12:24:44,2017-04-12>$TLBTI,11.9,V,62.0,F,*76\r\n$SDDBT,4.4,f,1.3,M,0.7,F*03\r\n$GPRMC,114058.00,A,4335.6058,N,00126.5250,E,0.1,115.0,130417,,*33\r\n<DateTime/>
<DateTime12:24:45,2017-04-12>$TLBTI,11.9,V,62.0,F,*76\r\n$SDDBT,2.3,f,0.7,M,0.3,F*03\r\n$GPRMC,114059.00,A,4335.6058,N,00126.5250,E,0.1,115.0,130417,,*32\r\n$TLBTI,11.9,V,62.0,F,*76\r\n<DateTime/>
<DateTime12:24:46,2017-04-12>$SDDBT,4.3,f,1.3,M,0.7,F*04\r\n$GPRMC,114100.00,A,4335.6058,N,00126.5250,E,0.1,115.0,130417,,*3F\r\n$TLBTI,11.9,V,62.0,F,*76\r\n<DateTime/>
<DateTime12:24:47,2017-04-12>$SDDBT,2.4,f,0.7,M,0.4,F*03\r\n$GPRMC,114101.00,A,4335.6058,N,00126.5250,E,0.1,115.0,130417,,*3E\r\n$TLBTI,11.9,V,62.3,F,*75\r\n<DateTime/>
<DateTime12:24:48,2017-04-12>$SDDBT,3.0,f,0.9,M,0.5,F*09\r\n$GPRMC,114101.00,A,4335.6059,N,00126.5250,E,0.1,115.0,130417,,*3F\r\n$TLBTI,11.9,V,62.3,F,*75\r\n$SDDBT,3.1,f,0.9,M,0.5,F*08\r\n<DateTime/>
<DateTime12:24:49,2017-04-12>$GPRMC,114102.00,A,4335.6059,N,00126.5250,E,0.1,115.0,130417,,*3C\r\n$TLBTI,11.9,V,62.5,F,*73\r\n$SDDBT,3.2,f,0.9,M,0.5,F*0B\r\n<DateTime/>
<DateTime12:24:50,2017-04-12>$GPRMC,114103.00,A,4335.6059,N,00126.5250,E,0.0,115.0,130417,,*3C\r\n$TLBTI,11.9,V,62.5,F,*73\r\n$SDDBT,2.8,f,0.8,M,0.4,F*00\r\n<DateTime/>
<DateTime12:24:51,2017-04-12>$GPRMC,114104.00,A,4335.6060,N,00126.5250,E,0.0,114.0,130417,,*30\r\n$TLBTI,11.9,V,62.6,F,*70\r\n$SDDBT,3.1,f,0.9,M,0.5,F*08\r\n$GPRMC,114105.00,A,4335.6060,N,00126.5250,E,0.0,114.0,130417,,*31\r\n<DateTime/>
<DateTime12:24:52,2017-04-12>$TLBTI,11.9,V,62.6,F,*70\r\n$SDDBT,3.7,f,1.1,M,0.6,F*04\r\n$GPRMC,114106.00,A,4335.6061,N,00126.5250,E,0.0,114.0,130417,,*33\r\n<DateTime/>
<DateTime12:24:53,2017-04-12>$TLBTI,11.9,V,62.6,F,*70\r\n$SDDBT,3.4,f,1.0,M,0.5,F*05\r\n$GPRMC,114107.00,A,4335.6061,N,00126.5250,E,0.0,114.0,130417,,*32\r\n<DateTime/>
<DateTime12:24:54,2017-04-12>$TLBTI,11.9,V,62.6,F,*70\r\n$SDDBT,3.5,f,1.0,M,0.5,F*04\r\n$GPRMC,114108.00,A,4335.6062,N,00126.5250,E,0.0,114.0,130417,,*3E\r\n$TLBTI,11.9,V,62.6,F,*70\r\n<DateTime/>
<DateTime12:24:55,2017-04-12>$SDDBT,3.3,f,1.0,M,0.5,F*02\r\n$GPRMC,114109.00,A,4335.6062,N,00126.5250,E,0.0,114.0,130417,,*3F\r\n$TLBTI,11.9,V,62.6,F,*70\r\n<DateTime/>
<DateTime12:24:56,2017-04-12>$SDDBT,3.7,f,1.1,M,0.6,F*04\r\n$GPRMC,114110.00,A,4335.6062,N,00126.5250,E,0.0,114.0,130417,,*37\r\n$TLBTI,11.9,V,62.6,F,*70\r\n<DateTime/>
<DateTime12:24:57,2017-04-12>$SDDBT,3.7,f,1.1,M,0.6,F*04\r\n$GPRMC,114111.00,A,4335.6062,N,00126.5250,E,0.0,114.0,130417,,*36\r\n$TLBTI,11.9,V,62.6,F,*70\r\n$SDDBT,3.6,f,1.1,M,0.6,F*05\r\n<DateTime/>
<DateTime12:24:58,2017-04-12>$GPRMC,114112.00,A,4335.6063,N,00126.5251,E,0.0,114.0,130417,,*35\r\n$TLBTI,12.0,V,62.6,F,*7A\r\n$SDDBT,3.5,f,1.0,M,0.5,F*04\r\n<DateTime/>
<DateTime12:24:59,2017-04-12>$GPRMC,114112.00,A,4335.6063,N,00126.5251,E,0.0,114.0,130417,,*35\r\n$TLBTI,11.9,V,62.6,F,*70\r\n$SDDBT,3.3,f,1.0,M,0.5,F*02\r\n<DateTime/>
<DateTime12:25:00,2017-04-12>$GPRMC,114113.00,A,4335.6063,N,00126.5251,E,0.0,114.0,130417,,*34\r\n$TLBTI,12.0,V,62.6,F,*7A\r\n$SDDBT,3.2,f,0.9,M,0.5,F*0B\r\n$GPRMC,114114.00,A,4335.6064,N,00126.5251,E,0.0,114.0,130417,,*34\r\n<DateTime/>
<DateTime12:25:01,2017-04-12>$TLBTI,11.9,V,62.6,F,*70\r\n$SDDBT,3.3,f,1.0,M,0.5,F*02\r\n$GPRMC,114115.00,A,4335.6064,N,00126.5252,E,0.0,114.0,130417,,*36\r\n<DateTime/>
<DateTime12:25:02,2017-04-12>$TLBTI,11.9,V,62.6,F,*70\r\n$SDDBT,2.1,f,0.6,M,0.3,F*00\r\n$GPRMC,114116.00,A,4335.6064,N,00126.5252,E,0.0,114.0,130417,,*35\r\n<DateTime/>
<DateTime12:25:03,2017-04-12>$TLBTI,11.9,V,62.6,F,*70\r\n$SDDBT,2.1,f,0.6,M,0.3,F*00\r\n$GPRMC,114117.00,A,4335.6064,N,00126.5252,E,0.0,115.0,130417,,*35\r\n$TLBTI,11.9,V,62.6,F,*70\r\n<DateTime/>
<DateTime12:25:04,2017-04-12>$SDDBT,2.1,f,0.6,M,0.3,F*00\r\n$GPRMC,114118.00,A,4335.6064,N,00126.5252,E,0.0,115.0,130417,,*3A\r\n$TLBTI,11.9,V,62.3,F,*75\r\n<DateTime/>
<DateTime12:25:05,2017-04-12>$SDDBT,2.1,f,0.6,M,0.3,F*00\r\n$GPRMC,114119.00,A,4335.6064,N,00126.5252,E,0.0,115.0,130417,,*3B\r\n$TLBTI,12.0,V,62.3,F,*7F\r\n<DateTime/>
<DateTime12:25:06,2017-04-12>$SDDBT,2.4,f,0.7,M,0.4,F*03\r\n$GPRMC,114120.00,A,4335.6064,N,00126.5252,E,0.0,115.0,130417,,*31\r\n$TLBTI,11.9,V,62.3,F,*75\r\n$SDDBT,3.3,f,1.0,M,0.5,F*02\r\n<DateTime/>
<DateTime12:25:07,2017-04-12>$GPRMC,114121.00,A,4335.6064,N,00126.5253,E,0.0,115.0,130417,,*31\r\n$TLBTI,11.9,V,62.5,F,*73\r\n$SDDBT,3.8,f,1.1,M,0.6,F*0B\r\n<DateTime/>
<DateTime12:25:08,2017-04-12>$GPRMC,114121.00,A,4335.6063,N,00126.5253,E,0.0,115.0,130417,,*36\r\n$TLBTI,11.9,V,62.5,F,*73\r\n$SDDBT,2.1,f,0.6,M,0.3,F*00\r\n<DateTime/>
<DateTime12:25:09,2017-04-12>$GPRMC,114122.00,A,4335.6063,N,00126.5253,E,0.0,116.0,130417,,*36\r\n$TLBTI,11.9,V,62.2,F,*74\r\n$SDDBT,2.2,f,0.6,M,0.3,F*03\r\n$GPRMC,1141<DateTime/>
<DateTime12:25:10,2017-04-12>23.00,A,4335.6063,N,00126.5253,E,0.0,116.0,130417,,*37\r\n$TLBTI,11.9,V,62.2,F,*74\r\n$SDDBT,2.3,f,0.7,M,0.3,F*03\r\n$GPRMC,114124.00,A,4335.6064,N,00126.5254,E,0.0,117.0,130417,,*31\r\n<DateTime/>
<DateTime12:25:11,2017-04-12>$TLBTI,11.9,V,62.1,F,*77\r\n$SDDBT,2.1,f,0.6,M,0.3,F*00\r\n$GPRMC,114125.00,A,4335.6064,N,00126.5254,E,0.0,117.0,130417,,*30\r\n<DateTime/>
<DateTime12:25:12,2017-04-12>$TLBTI,11.9,V,62.1,F,*77\r\n$SDDBT,2.3,f,0.7,M,0.3,F*03\r\n$GPRMC,114126.00,A,4335.6065,N,00126.5254,E,0.0,118.0,130417,,*3D\r\n<DateTime/>
<DateTime12:25:13,2017-04-12>$TLBTI,11.9,V,62.0,F,*76\r\n$SDDBT,2.3,f,0.7,M,0.3,F*03\r\n$GPRMC,114127.00,A,4335.6065,N,00126.5254,E,0.1,118.0,130417,,*3D\r\n$TLBTI,11.9,V,62.0,F,*76\r\n<DateTime/>
<DateTime12:25:14,2017-04-12>$SDDBT,2.4,f,0.7,M,0.4,F*03\r\n$GPRMC,114128.00,A,4335.6065,N,00126.5254,E,0.0,119.0,130417,,*32\r\n$TLBTI,11.9,V,62.0,F,*76\r\n<DateTime/>
<DateTime12:25:15,2017-04-12>$SDDBT,3.2,f,0.9,M,0.5,F*0B\r\n$GPRMC,114129.00,A,4335.6064,N,00126.5254,E,0.0,119.0,130417,,*32\r\n$TLBTI,11.9,V,62.0,F,*76\r\n<DateTime/>
<DateTime12:25:16,2017-04-12>$SDDBT,2.9,f,0.9,M,0.4,F*00\r\n$GPRMC,114130.00,A,4335.6064,N,00126.5255,E,0.0,120.0,130417,,*31\r\n$TLBTI,11.9,V,62.3,F,*75\r\n$SDDBT,2.4,f,0.7,M,0.4,F*03\r\n<DateTime/>
<DateTime12:25:17,2017-04-12>$GPRMC,114130.00,A,4335.6063,N,00126.5255,E,0.0,120.0,130417,,*36\r\n$TLBTI,11.9,V,62.3,F,*75\r\n$SDDBT,3.2,f,0.9,M,0.5,F*0B\r\n<DateTime/>
<DateTime12:25:18,2017-04-12>$GPRMC,114131.00,A,4335.6063,N,00126.5255,E,0.0,121.0,130417,,*36\r\n$TLBTI,11.9,V,62.1,F,*77\r\n$SDDBT,3.0,f,0.9,M,0.5,F*09\r\n<DateTime/>
<DateTime12:25:19,2017-04-12>$GPRMC,114132.00,A,4335.6062,N,00126.5255,E,0.0,121.0,130417,,*34\r\n$TLBTI,11.9,V,62.1,F,*77\r\n$SDDBT,2.9,f,0.9,M,0.4,F*00\r\n$GPRMC,114133.00,A,4335.6062,N,00126.5256,E,0.0,122.0,130417,,*35\r\n<DateTime/>
<DateTime12:25:20,2017-04-12>$TLBTI,11.9,V,62.1,F,*77\r\n$SDDBT,2.9,f,0.9,M,0.4,F*00\r\n$GPRMC,114134.00,A,4335.6062,N,00126.5256,E,0.0,123.0,130417,,*33\r\n<DateTime/>
<DateTime12:25:21,2017-04-12>$TLBTI,11.9,V,62.4,F,*72\r\n$SDDBT,2.1,f,0.6,M,0.3,F*00\r\n$GPRMC,114135.00,A,4335.6062,N,00126.5256,E,0.0,123.0,130417,,*32\r\n<DateTime/>
<DateTime12:25:22,2017-04-12>$TLBTI,11.9,V,62.4,F,*72\r\n$SDDBT,2.4,f,0.7,M,0.4,F*03\r\n$GPRMC,114136.00,A,4335.6062,N,00126.5256,E,0.1,124.0,130417,,*37\r\n$TLBTI,11.9,V,62.2,F,*74\r\n<DateTime/>
<DateTime12:25:23,2017-04-12>$SDDBT,2.6,f,0.8,M,0.4,F*0E\r\n$GPRMC,114137.00,A,4335.6063,N,00126.5257,E,0.0,124.0,130417,,*37\r\n$TLBTI,11.9,V,62.2,F,*74\r\n<DateTime/>
<DateTime12:25:24,2017-04-12>$SDDBT,2.7,f,0.8,M,0.4,F*0F\r\n$GPRMC,114138.00,A,4335.6062,N,00126.5258,E,0.0,125.0,130417,,*37\r\n$TLBTI,11.9,V,62.1,F,*77\r\n<DateTime/>
<DateTime12:25:25,2017-04-12>$SDDBT,2.7,f,0.8,M,0.4,F*0F\r\n$GPRMC,114139.00,A,4335.6061,N,00126.5259,E,0.0,126.0,130417,,*37\r\n$TLBTI,11.9,V,62.1,F,*77\r\n$SDDBT,2.1,f,0.6,M,0.3,F*00\r\n<DateTime/>
<DateTime12:25:26,2017-04-12>$GPRMC,114139.00,A,4335.6061,N,00126.5260,E,0.0,126.0,130417,,*3D\r\n$TLBTI,12.0,V,62.0,F,*7C\r\n$SDDBT,2.6,f,0.8,M,0.4,F*0E\r\n<DateTime/>
<DateTime12:25:27,2017-04-12>$GPRMC,114140.00,A,4335.6061,N,00126.5260,E,0.0,127.0,130417,,*32\r\n$TLBTI,11.9,V,62.0,F,*76\r\n$SDDBT,2.6,f,0.8,M,0.4,F*0E\r\n<DateTime/>
<DateTime12:25:28,2017-04-12>$GPRMC,114141.00,A,4335.6060,N,00126.5261,E,0.0,128.0,130417,,*3C\r\n$TLBTI,11.9,V,62.0,F,*76\r\n$SDDBT,2.8,f,0.8,M,0.4,F*00\r\n$GPRMC,114142.00,A,4335.6061,N,00126.5262,E,0.0,128.0,130417,,*3D\r\n<DateTime/>
<DateTime12:25:29,2017-04-12>$TLBTI,11.9,V,62.0,F,*76\r\n$SDDBT,3.3,f,1.0,M,0.5,F*02\r\n$GPRMC,114143.00,A,4335.6061,N,00126.5262,E,0.0,129.0,130417,,*3D\r\n<DateTime/>
<DateTime12:25:30,2017-04-12>$TLBTI,11.9,V,62.3,F,*75\r\n$SDDBT,3.1,f,0.9,M,0.5,F*08\r\n$GPRMC,114144.00,A,4335.6061,N,00126.5262,E,0.0,130.0,130417,,*32\r\n<DateTime/>
<DateTime12:25:31,2017-04-12>$TLBTI,11.9,V,62.3,F,*75\r\n$SDDBT,3.3,f,1.0,M,0.5,F*02\r\n$GPRMC,114145.00,A,4335.6061,N,00126.5262,E,0.0,130.0,130417,,*33\r\n$TLBTI,11.9,V,62.1,F,*77\r\n<DateTime/>
<DateTime12:25:32,2017-04-12>$SDDBT,2.8,f,0.8,M,0.4,F*00\r\n$GPRMC,114146.00,A,4335.6062,N,00126.5262,E,0.0,130.0,130417,,*33\r\n$TLBTI,11.9,V,62.1,F,*77\r\n<DateTime/>
<DateTime12:25:33,2017-04-12>$SDDBT,3.1,f,0.9,M,0.5,F*08\r\n$GPRMC,114147.00,A,4335.6062,N,00126.5262,E,0.0,131.0,130417,,*33\r\n$TLBTI,11.9,V,62.4,F,*72\r\n<DateTime/>
<DateTime12:25:34,2017-04-12>$SDDBT,2.9,f,0.9,M,0.4,F*00\r\n$GPRMC,114148.00,A,4335.6062,N,00126.5264,E,0.0,132.0,130417,,*39\r\n$TLBTI,11.9,V,62.4,F,*72\r\n$SDDBT,2.9,f,0.9,M,0.4,F*00\r\n<DateTime/>
<DateTime12:25:35,2017-04-12>$GPRMC,114148.00,A,4335.6062,N,00126.5264,E,0.0,132.0,130417,,*39\r\n$TLBTI,11.9,V,62.5,F,*73\r\n$SDDBT,2.9,f,0.9,M,0.4,F*00\r\n<DateTime/>
<DateTime12:25:36,2017-04-12>$GPRMC,114150.00,A,4335.6062,N,00126.5265,E,0.0,132.0,130417,,*31\r\n$TLBTI,11.9,V,62.5,F,*73\r\n$SDDBT,2.1,f,0.6,M,0.3,F*00\r\n<DateTime/>
<DateTime12:25:37,2017-04-12>$GPRMC,114150.00,A,4335.6063,N,00126.5265,E,0.0,133.0,130417,,*31\r\n$TLBTI,11.9,V,62.5,F,*73\r\n$SDDBT,2.6,f,0.8,M,0.4,F*0E\r\n$GPRMC,114151.00,A,4335.6063,N,00126.5266,E,0.0,133.0,130417,,*33\r\n<DateTime/>
<DateTime12:25:38,2017-04-12>$TLBTI,11.9,V,62.6,F,*70\r\n$SDDBT,2.5,f,0.7,M,0.4,F*02\r\n$GPRMC,114152.00,A,4335.6062,N,00126.5266,E,0.0,133.0,130417,,*31\r\n<DateTime/>
<DateTime12:25:39,2017-04-12>$TLBTI,11.9,V,62.6,F,*70\r\n$SDDBT,2.1,f,0.6,M,0.3,F*00\r\n$GPRMC,114153.00,A,4335.6062,N,00126.5267,E,0.0,134.0,130417,,*36\r\n<DateTime/>
<DateTime12:25:40,2017-04-12>$TLBTI,11.9,V,62.3,F,*75\r\n$SDDBT,2.1,f,0.6,M,0.3,F*00\r\n$GPRMC,114154.00,A,4335.6062,N,00126.5267,E,0.0,134.0,130417,,*31\r\n$TLBTI,11.<DateTime/>
<DateTime12:25:41,2017-04-12>9,V,62.3,F,*75\r\n$SDDBT,2.5,f,0.7,M,0.4,F*02\r\n$GPRMC,114155.00,A,4335.6062,N,00126.5267,E,0.0,134.0,130417,,*30\r\n$TLBTI,11.9,V,62.1,F,*77\r\n<DateTime/>
<DateTime12:25:42,2017-04-12>$SDDBT,2.1,f,0.6,M,0.3,F*00\r\n$GPRMC,114155.00,A,4335.6063,N,00126.5268,E,0.0,134.0,130417,,*3E\r\n$TLBTI,11.9,V,62.1,F,*77\r\n<DateTime/>
<DateTime12:25:43,2017-04-12>$SDDBT,2.5,f,0.7,M,0.4,F*02\r\n$GPRMC,114157.00,A,4335.6063,N,00126.5268,E,0.0,135.0,130417,,*3D\r\n$TLBTI,12.0,V,62.4,F,*78\r\n<DateTime/>
<DateTime12:25:44,2017-04-12>$SDDBT,2.7,f,0.8,M,0.4,F*0F\r\n$GPRMC,114158.00,A,4335.6063,N,00126.5269,E,0.0,134.0,130417,,*32\r\n$TLBTI,11.9,V,62.4,F,*72\r\n$SDDBT,2.6,f,0.8,M,0.4,F*0E\r\n<DateTime/>
<DateTime12:25:45,2017-04-12>$GPRMC,114159.00,A,4335.6064,N,00126.5269,E,0.0,135.0,130417,,*35\r\n$TLBTI,11.9,V,62.5,F,*73\r\n$SDDBT,2.6,f,0.8,M,0.4,F*0E\r\n<DateTime/>
<DateTime12:25:46,2017-04-12>$GPRMC,114159.00,A,4335.6064,N,00126.5270,E,0.0,134.0,130417,,*3C\r\n$TLBTI,11.9,V,62.5,F,*73\r\n$SDDBT,1.2,f,0.3,M,0.2,F*04\r\n<DateTime/>
<DateTime12:25:47,2017-04-12>$GPRMC,114200.00,A,4335.6064,N,00126.5270,E,0.0,134.0,130417,,*33\r\n$TLBTI,11.9,V,62.6,F,*70\r\n$SDDBT,1.8,f,0.5,M,0.3,F*09\r\n$GPRMC,114201.00,A,4335.6064,N,00126.5271,E,0.0,134.0,130417,,*33\r\n<DateTime/>
<DateTime12:25:48,2017-04-12>$TLBTI,11.9,V,62.6,F,*70\r\n$SDDBT,1.9,f,0.6,M,0.3,F*0B\r\n$GPRMC,114202.00,A,4335.6064,N,00126.5271,E,0.0,134.0,130417,,*30\r\n<DateTime/>
<DateTime12:25:49,2017-04-12>$TLBTI,11.9,V,62.6,F,*70\r\n$SDDBT,1.9,f,0.6,M,0.3,F*0B\r\n$GPRMC,114203.00,A,4335.6064,N,00126.5271,E,0.0,133.0,130417,,*36\r\n<DateTime/>
<DateTime12:25:50,2017-04-12>$TLBTI,11.9,V,62.3,F,*75\r\n$SDDBT,1.9,f,0.6,M,0.3,F*0B\r\n$GPRMC,114204.00,A,4335.6064,N,00126.5272,E,0.0,133.0,130417,,*32\r\n$TLBTI,11.9,V,62.3,F,*75\r\n<DateTime/>
<DateTime12:25:51,2017-04-12>$SDDBT,2.1,f,0.6,M,0.3,F*00\r\n$GPRMC,114205.00,A,4335.6064,N,00126.5272,E,0.0,132.0,130417,,*32\r\n$TLBTI,11.9,V,62.5,F,*73\r\n<DateTime/>
<DateTime12:25:52,2017-04-12>$SDDBT,2.3,f,0.7,M,0.3,F*03\r\n$GPRMC,114206.00,A,4335.6064,N,00126.5272,E,0.1,131.0,130417,,*33\r\n$TLBTI,11.9,V,62.5,F,*73\r\n<DateTime/>
<DateTime12:25:53,2017-04-12>$SDDBT,1.2,f,0.3,M,0.2,F*04\r\n$GPRMC,114207.00,A,4335.6064,N,00126.5273,E,0.0,129.0,130417,,*3B\r\n$TLBTI,11.9,V,62.2,F,*74\r\n$SDDBT,1.2,f,0.3,M,0.2,F*04\r\n<DateTime/>
<DateTime12:25:54,2017-04-12>$GPRMC,114208.00,A,4335.6064,N,00126.5273,E,0.0,129.0,130417,,*34\r\n$TLBTI,11.9,V,62.2,F,*74\r\n$SDDBT,1.3,f,0.4,M,0.2,F*02\r\n<DateTime/>
<DateTime12:25:55,2017-04-12>$GPRMC,114208.00,A,4335.6064,N,00126.5273,E,0.0,128.0,130417,,*35\r\n$TLBTI,11.9,V,62.1,F,*77\r\n$SDDBT,1.3,f,0.4,M,0.2,F*02\r\n<DateTime/>
<DateTime12:25:56,2017-04-12>$GPRMC,114209.00,A,4335.6065,N,00126.5273,E,0.0,126.0,130417,,*3B\r\n$TLBTI,11.9,V,62.1,F,*77\r\n$SDDBT,5.9,f,1.8,M,0.9,F*0A\r\n$GPRMC,114210.00,A,4335.6065,N,00126.5273,E,0.0,125.0,130417,,*30\r\n<DateTime/>
<DateTime12:25:57,2017-04-12>$TLBTI,11.9,V,62.0,F,*76\r\n$SDDBT,5.6,f,1.7,M,0.9,F*0A\r\n$GPRMC,114211.00,A,4335.6065,N,00126.5273,E,0.0,124.0,130417,,*30\r\n<DateTime/>
<DateTime12:25:58,2017-04-12>$TLBTI,11.9,V,62.0,F,*76\r\n$SDDBT,3.9,f,1.2,M,0.6,F*09\r\n$GPRMC,114212.00,A,4335.6065,N,00126.5273,E,0.0,123.0,130417,,*34\r\n<DateTime/>
<DateTime12:25:59,2017-04-12>$TLBTI,11.9,V,62.3,F,*75\r\n$SDDBT,5.6,f,1.7,M,0.9,F*0A\r\n$GPRMC,114213.00,A,4335.6066,N,00126.5273,E,0.0,122.0,130417,,*37\r\n$TLBTI,11.9,V,62.3,F,*75\r\n<DateTime/>
<DateTime12:26:00,2017-04-12>$SDDBT,1.5,f,0.4,M,0.2,F*04\r\n$GPRMC,114214.00,A,4335.6066,N,00126.5273,E,0.0,122.0,130417,,*30\r\n$TLBTI,11.9,V,62.1,F,*77\r\n<DateTime/>
<DateTime12:26:01,2017-04-12>$SDDBT,4.7,f,1.4,M,0.7,F*07\r\n$GPRMC,114215.00,A,4335.6066,N,00126.5273,E,0.0,120.0,130417,,*33\r\n$TLBTI,11.9,V,62.1,F,*77\r\n<DateTime/>
<DateTime12:26:02,2017-04-12>$SDDBT,4.7,f,1.4,M,0.7,F*07\r\n$GPRMC,114216.00,A,4335.6066,N,00126.5273,E,0.0,119.0,130417,,*3A\r\n$TLBTI,11.9,V,62.4,F,*72\r\n$SDDBT,4.7,f,1.4,M,0.7,F*07\r\n<DateTime/>
<DateTime12:26:03,2017-04-12>$GPRMC,114217.00,A,4335.6066,N,00126.5273,E,0.0,119.0,130417,,*3B\r\n$TLBTI,11.9,V,62.4,F,*72\r\n$SDDBT,4.7,f,1.4,M,0.7,F*07\r\n<DateTime/>
<DateTime12:26:04,2017-04-12>$GPRMC,114217.00,A,4335.6068,N,00126.5273,E,0.0,118.0,130417,,*34\r\n$TLBTI,11.9,V,62.5,F,*73\r\n$SDDBT,4.6,f,1.4,M,0.7,F*06\r\n<DateTime/>
<DateTime12:26:05,2017-04-12>$GPRMC,114218.00,A,4335.6070,N,00126.5273,E,0.1,117.0,130417,,*3C\r\n$TLBTI,11.9,V,62.5,F,*73\r\n$SDDBT,4.6,f,1.4,M,0.7,F*06\r\n$GPRMC,114219.00,A,4335.6071,N,00126.5273,E,0.0,116.0,130417,,*3C\r\n<DateTime/>
<DateTime12:26:06,2017-04-12>$TLBTI,11.9,V,62.5,F,*73\r\n$SDDBT,4.4,f,1.3,M,0.7,F*03\r\n$GPRMC,114220.00,A,4335.6071,N,00126.5273,E,0.0,115.0,130417,,*35\r\n<DateTime/>
<DateTime12:26:07,2017-04-12>$TLBTI,11.9,V,62.6,F,*70\r\n$SDDBT,4.7,f,1.4,M,0.7,F*07\r\n$GPRMC,114221.00,A,4335.6071,N,00126.5273,E,0.0,115.0,130417,,*34\r\n<DateTime/>
<DateTime12:26:08,2017-04-12>$TLBTI,12.0,V,62.6,F,*7A\r\n$SDDBT,0.0,f,0.0,M,0.0,F*06\r\n$GPRMC,114222.00,A,4335.6071,N,00126.5273,E,0.0,115.0,130417,,*37\r\n$TLBTI,11.9,V,62.6,F,*70\r\n<DateTime/>
<DateTime12:26:09,2017-04-12>$SDDBT,4.6,f,1.4,M,0.7,F*06\r\n$GPRMC,114223.00,A,4335.6072,N,00126.5273,E,0.0,116.0,130417,,*36\r\n$TLBTI,11.9,V,62.6,F,*70\r\n<DateTime/>
<DateTime12:26:10,2017-04-12>$SDDBT,4.0,f,1.2,M,0.6,F*07\r\n$GPRMC,114224.00,A,4335.6073,N,00126.5274,E,0.0,117.0,130417,,*36\r\n$TLBTI,11.9,V,62.6,F,*70\r\n<DateTime/>
<DateTime12:26:11,2017-04-12>$SDDBT,4.7,f,1.4,M,0.7,F*07\r\n$GPRMC,114225.00,A,4335.6073,N,00126.5274,E,0.1,123.0,130417,,*31\r\n$TLBTI,11.9,V,62.6,F,*70\r\n$SDDBT,1.3,f,0<DateTime/>
<DateTime12:26:12,2017-04-12>.4,M,0.2,F*02\r\n$GPRMC,114225.00,A,4335.6074,N,00126.5272,E,0.3,124.0,130417,,*35\r\n$TLBTI,11.9,V,62.3,F,*75\r\n$SDDBT,2.2,f,0.6,M,0.3,F*03\r\n<DateTime/>
<DateTime12:26:13,2017-04-12>$GPRMC,114226.00,A,4335.6075,N,00126.5271,E,0.4,124.0,130417,,*33\r\n$TLBTI,11.9,V,62.3,F,*75\r\n$SDDBT,1.3,f,0.4,M,0.2,F*02\r\n<DateTime/>
<DateTime12:26:14,2017-04-12>$GPRMC,114227.00,A,4335.6076,N,00126.5270,E,0.3,125.0,130417,,*36\r\n$TLBTI,11.9,V,62.1,F,*77\r\n$SDDBT,2.7,f,0.8,M,0.4,F*0F\r\n<DateTime/>
<DateTime12:26:15,2017-04-12>$GPRMC,114228.00,A,4335.6076,N,00126.5269,E,0.4,126.0,130417,,*35\r\n$TLBTI,11.9,V,62.1,F,*77\r\n$SDDBT,1.3,f,0.4,M,0.2,F*02\r\n$GPRMC,114229.00,A,4335.6077,N,00126.5268,E,0.4,125.0,130417,,*37\r\n<DateTime/>
<DateTime12:26:16,2017-04-12>$TLBTI,11.9,V,62.0,F,*76\r\n$SDDBT,1.4,f,0.4,M,0.2,F*05\r\n$GPRMC,114230.00,A,4335.6078,N,00126.5267,E,0.3,119.0,130417,,*37\r\n<DateTime/>
<DateTime12:26:17,2017-04-12>$TLBTI,11.9,V,62.0,F,*76\r\n$SDDBT,4.7,f,1.4,M,0.7,F*07\r\n$GPRMC,114231.00,A,4335.6078,N,00126.5267,E,0.2,116.0,130417,,*38\r\n<DateTime/>
<DateTime12:26:18,2017-04-12>$TLBTI,11.9,V,62.0,F,*76\r\n$SDDBT,1.6,f,0.5,M,0.2,F*06\r\n$GPRMC,114232.00,A,4335.6078,N,00126.5267,E,0.2,115.0,130417,,*38\r\n$TLBTI,11.9,V,62.0,F,*76\r\n<DateTime/>
<DateTime12:26:19,2017-04-12>$SDDBT,1.5,f,0.4,M,0.2,F*04\r\n$GPRMC,114233.00,A,4335.6080,N,00126.5268,E,0.4,116.0,130417,,*34\r\n$TLBTI,11.9,V,62.0,F,*76\r\n<DateTime/>
<DateTime12:26:20,2017-04-12>$SDDBT,2.1,f,0.6,M,0.3,F*00\r\n$GPRMC,114234.00,A,4335.6082,N,00126.5268,E,0.5,116.0,130417,,*30\r\n$TLBTI,11.9,V,62.0,F,*76\r\n<DateTime/>
<DateTime12:26:21,2017-04-12>$SDDBT,2.1,f,0.6,M,0.3,F*00\r\n$GPRMC,114235.00,A,4335.6083,N,00126.5268,E,0.5,117.0,130417,,*31\r\n$TLBTI,11.9,V,62.0,F,*76\r\n$SDDBT,2.4,f,0.7,M,0.4,F*03\r\n<DateTime/>
<DateTime12:26:22,2017-04-12>$GPRMC,114235.00,A,4335.6084,N,00126.5267,E,0.5,118.0,130417,,*36\r\n$TLBTI,11.9,V,62.0,F,*76\r\n$SDDBT,3.5,f,1.0,M,0.5,F*04\r\n<DateTime/>
<DateTime12:26:23,2017-04-12>$GPRMC,114236.00,A,4335.6084,N,00126.5267,E,0.4,118.0,130417,,*34\r\n$TLBTI,11.9,V,62.0,F,*76\r\n$SDDBT,3.1,f,0.9,M,0.5,F*08\r\n<DateTime/>
<DateTime12:26:24,2017-04-12>$GPRMC,114237.00,A,4335.6087,N,00126.5267,E,0.4,119.0,130417,,*37\r\n$TLBTI,11.9,V,62.0,F,*76\r\n$SDDBT,3.2,f,0.9,M,0.5,F*0B\r\n$GPRMC,114238.00,A,4335.6088,N,00126.5266,E,0.4,118.0,130417,,*37\r\n<DateTime/>
<DateTime12:26:25,2017-04-12>$TLBTI,11.9,V,62.0,F,*76\r\n$SDDBT,3.3,f,1.0,M,0.5,F*02\r\n$GPRMC,114239.00,A,4335.6088,N,00126.5266,E,0.4,117.0,130417,,*39\r\n<DateTime/>
<DateTime12:26:26,2017-04-12>$TLBTI,11.9,V,62.0,F,*76\r\n$SDDBT,2.6,f,0.8,M,0.4,F*0E\r\n$GPRMC,114240.00,A,4335.6090,N,00126.5266,E,0.3,116.0,130417,,*38\r\n<DateTime/>
<DateTime12:26:27,2017-04-12>$TLBTI,12.0,V,62.0,F,*7C\r\n$SDDBT,3.4,f,1.0,M,0.5,F*05\r\n$GPRMC,114241.00,A,4335.6090,N,00126.5266,E,0.2,114.0,130417,,*3A\r\n$TLBTI,11.9,V,62.0,F,*76\r\n<DateTime/>
<DateTime12:26:28,2017-04-12>$SDDBT,3.0,f,0.9,M,0.5,F*09\r\n$GPRMC,114242.00,A,4335.6091,N,00126.5266,E,0.4,114.0,130417,,*3E\r\n$TLBTI,11.9,V,62.0,F,*76\r\n<DateTime/>
<DateTime12:26:29,2017-04-12>$SDDBT,3.7,f,1.1,M,0.6,F*04\r\n$GPRMC,114243.00,A,4335.6094,N,00126.5267,E,0.5,117.0,130417,,*39\r\n$TLBTI,11.9,V,62.0,F,*76\r\n<DateTime/>
<DateTime12:26:30,2017-04-12>$SDDBT,4.1,f,1.2,M,0.6,F*06\r\n$GPRMC,114244.00,A,4335.6096,N,00126.5266,E,0.7,118.0,130417,,*30\r\n$TLBTI,11.9,V,62.0,F,*76\r\n$SDDBT,4.0,f,1.2,M,0.6,F*07\r\n<DateTime/>
<DateTime12:26:31,2017-04-12>$GPRMC,114245.00,A,4335.6098,N,00126.5266,E,0.6,120.0,130417,,*35\r\n$TLBTI,11.9,V,62.0,F,*76\r\n$SDDBT,4.1,f,1.2,M,0.6,F*06\r\n<DateTime/>
<DateTime12:26:32,2017-04-12>$GPRMC,114245.00,A,4335.6100,N,00126.5265,E,0.6,119.0,130417,,*3C\r\n$TLBTI,11.9,V,62.0,F,*76\r\n$SDDBT,3.7,f,1.1,M,0.6,F*04\r\n<DateTime/>
<DateTime12:26:33,2017-04-12>$GPRMC,114246.00,A,4335.6101,N,00126.5264,E,0.6,116.0,130417,,*30\r\n$TLBTI,11.9,V,62.0,F,*76\r\n$SDDBT,3.7,f,1.1,M,0.6,F*04\r\n$GPRMC,114247.00,A,4335.6101,N,00126.5264,E,0.4,114.0,130417,,*31\r\n<DateTime/>
<DateTime12:26:34,2017-04-12>$TLBTI,11.9,V,62.0,F,*76\r\n$SDDBT,3.7,f,1.1,M,0.6,F*04\r\n$GPRMC,114248.00,A,4335.6102,N,00126.5265,E,0.4,112.0,130417,,*3A\r\n<DateTime/>
<DateTime12:26:35,2017-04-12>$TLBTI,11.9,V,62.0,F,*76\r\n$SDDBT,4.0,f,1.2,M,0.6,F*07\r\n$GPRMC,114249.00,A,4335.6104,N,00126.5267,E,0.6,112.0,130417,,*3D\r\n<DateTime/>
<DateTime12:26:36,2017-04-12>$TLBTI,11.9,V,62.0,F,*76\r\n$SDDBT,3.4,f,1.0,M,0.5,F*05\r\n$GPRMC,114250.00,A,4335.6104,N,00126.5267,E,0.7,112.0,130417,,*34\r\n$TLBTI,11.9,V,62.0,F,*76\r\n<DateTime/>
<DateTime12:26:37,2017-04-12>$SDDBT,3.7,f,1.1,M,0.6,F*04\r\n$GPRMC,114251.00,A,4335.6107,N,00126.5268,E,0.7,112.0,130417,,*39\r\n$TLBTI,11.9,V,62.0,F,*76\r\n<DateTime/>
<DateTime12:26:38,2017-04-12>$SDDBT,3.0,f,0.9,M,0.5,F*09\r\n$GPRMC,114252.00,A,4335.6108,N,00126.5269,E,0.6,112.0,130417,,*35\r\n$TLBTI,11.9,V,62.0,F,*76\r\n<DateTime/>
<DateTime12:26:39,2017-04-12>$SDDBT,2.4,f,0.7,M,0.4,F*03\r\n$GPRMC,114253.00,A,4335.6109,N,00126.5271,E,0.6,112.0,130417,,*3C\r\n$TLBTI,11.9,V,62.0,F,*76\r\n$SDDBT,2.8,f,0.8,M,0.4,F*00\r\n<DateTime/>
<DateTime12:26:40,2017-04-12>$GPRMC,114254.00,A,4335.6111,N,00126.5272,E,0.5,113.0,130417,,*33\r\n$TLBTI,11.9,V,62.0,F,*76\r\n$SDDBT,3.8,f,1.1,M,0.6,F*0B\r\n<DateTime/>
<DateTime12:26:41,2017-04-12>$GPRMC,114254.00,A,4335.6112,N,00126.5272,E,0.5,114.0,130417,,*37\r\n$TLBTI,11.9,V,62.0,F,*76\r\n$SDDBT,4.1,f,1.2,M,0.6,F*06\r\n<DateTime/>
<DateTime12:26:42,2017-04-12>$GPRMC,114255.00,A,4335.6114,N,00126.5273,E,0.5,114.0,130417,,*31\r\n$TLBTI,11.9,V,62.0,F,*76\r\n$SDDBT,3.4,f,1.0,M,0.5,F*05\r\n<DateTime/>
<DateTime12:26:43,2017-04-12>$GPRMC,114256.00,A,4335.6115,N,00126.5273,E,0.5,115.0,130417,,*32\r\n$TLBTI,11.9,V,62.0,F,*76\r\n$SDDBT,2.8,f,0.8,M,0.4,F*00\r\n$GPRMC,114257.00,A,4335.6117,N,00126.5274,E,0.5,115.0,130417,,*36\r\n<DateTime/>
<DateTime12:26:44,2017-04-12>$TLBTI,11.9,V,62.0,F,*76\r\n$SDDBT,2.8,f,0.8,M,0.4,F*00\r\n$GPRMC,114258.00,A,4335.6119,N,00126.5274,E,0.5,115.0,130417,,*37\r\n<DateTime/>
<DateTime12:26:45,2017-04-12>$TLBTI,11.9,V,62.3,F,*75\r\n$SDDBT,4.3,f,1.3,M,0.7,F*04\r\n$GPRMC,114259.00,A,4335.6119,N,00126.5274,E,0.5,115.0,130417,,*36\r\n<DateTime/>
<DateTime12:26:46,2017-04-12>$TLBTI,11.9,V,62.3,F,*75\r\n$SDDBT,3.9,f,1.2,M,0.6,F*09\r\n$GPRMC,114300.00,A,4335.6121,N,00126.5274,E,0.5,116.0,130417,,*33\r\n$TLBTI,11.9,V,62.1,F,*77\r\n<DateTime/>
<DateTime12:26:47,2017-04-12>$SDDBT,4.5,f,1.3,M,0.7,F*02\r\n$GPRMC,114301.00,A,4335.6122,N,00126.5274,E,0.5,115.0,130417,,*32\r\n$TLBTI,11.9,V,62.1,F,*77\r\n<DateTime/>
<DateTime12:26:48,2017-04-12>$SDDBT,4.8,f,1.4,M,0.8,F*07\r\n$GPRMC,114302.00,A,4335.6124,N,00126.5275,E,0.3,115.0,130417,,*30\r\n$TLBTI,11.9,V,62.4,F,*72\r\n<DateTime/>
<DateTime12:26:49,2017-04-12>$SDDBT,4.7,f,1.4,M,0.7,F*07\r\n$GPRMC,114303.00,A,4335.6125,N,00126.5275,E,0.3,116.0,130417,,*33\r\n$TLBTI,11.9,V,62.4,F,*72\r\n$SDDBT,4.7,f,1.4,M,0.7,F*07\r\n<DateTime/>
<DateTime12:26:50,2017-04-12>$GPRMC,114303.00,A,4335.6126,N,00126.5276,E,0.3,116.0,130417,,*33\r\n$TLBTI,11.9,V,62.2,F,*74\r\n$SDDBT,4.4,f,1.3,M,0.7,F*03\r\n<DateTime/>
<DateTime12:26:51,2017-04-12>$GPRMC,114304.00,A,4335.6126,N,00126.5276,E,0.2,116.0,130417,,*35\r\n$TLBTI,11.9,V,62.2,F,*74\r\n$SDDBT,4.3,f,1.3,M,0.7,F*04\r\n<DateTime/>
<DateTime12:26:52,2017-04-12>$GPRMC,114305.00,A,4335.6126,N,00126.5277,E,0.2,116.0,130417,,*35\r\n$TLBTI,11.9,V,62.4,F,*72\r\n$SDDBT,4.2,f,1.2,M,0.7,F*04\r\n$GPRMC,114306.00,A,4335.6127,N,00126.5277,E,0.1,117.0,130417,,*35\r\n<DateTime/>
<DateTime12:26:53,2017-04-12>$TLBTI,11.9,V,62.4,F,*72\r\n$SDDBT,4.0,f,1.2,M,0.6,F*07\r\n$GPRMC,114307.00,A,4335.6128,N,00126.5279,E,0.1,117.0,130417,,*35\r\n<DateTime/>
<DateTime12:26:54,2017-04-12>$TLBTI,11.9,V,62.5,F,*73\r\n$SDDBT,4.3,f,1.3,M,0.7,F*04\r\n$GPRMC,114308.00,A,4335.6128,N,00126.5279,E,0.1,118.0,130417,,*35\r\n<DateTime/>
<DateTime12:26:55,2017-04-12>$TLBTI,11.9,V,62.5,F,*73\r\n$SDDBT,4.3,f,1.3,M,0.7,F*04\r\n$GPRMC,114309.00,A,4335.6128,N,00126.5279,E,0.0,118.0,130417,,*35\r\n$TLBTI,11.9,V,62.5,F,*73\r\n<DateTime/>
<DateTime12:26:56,2017-04-12>$SDDBT,4.0,f,1.2,M,0.6,F*07\r\n$GPRMC,114310.00,A,4335.6128,N,00126.5279,E,0.0,119.0,130417,,*3C\r\n$TLBTI,12.0,V,62.6,F,*7A\r\n<DateTime/>
<DateTime12:26:57,2017-04-12>$SDDBT,3.3,f,1.0,M,0.5,F*02\r\n$GPRMC,114311.00,A,4335.6128,N,00126.5279,E,0.0,119.0,130417,,*3D\r\n$TLBTI,11.9,V,62.6,F,*70\r\n<DateTime/>
<DateTime12:26:58,2017-04-12>$SDDBT,3.6,f,1.1,M,0.6,F*05\r\n$GPRMC,114312.00,A,4335.6129,N,00126.5280,E,0.0,120.0,130417,,*33\r\n$TLBTI,11.9,V,62.6,F,*70\r\n$SDDBT,2.5,f,0.7,M,0.4,F*02\r\n<DateTime/>
<DateTime12:26:59,2017-04-12>$GPRMC,114313.00,A,4335.6129,N,00126.5280,E,0.0,121.0,130417,,*33\r\n$TLBTI,11.9,V,62.6,F,*70\r\n$SDDBT,3.1,f,0.9,M,0.5,F*08\r\n<DateTime/>
<DateTime12:27:00,2017-04-12>$GPRMC,114314.00,A,4335.6129,N,00126.5280,E,0.0,122.0,130417,,*37\r\n$TLBTI,11.9,V,62.6,F,*70\r\n$SDDBT,2.4,f,0.7,M,0.4,F*03\r\n<DateTime/>
<DateTime12:27:01,2017-04-12>$GPRMC,114314.00,A,4335.6130,N,00126.5280,E,0.0,120.0,130417,,*3D\r\n$TLBTI,11.9,V,62.6,F,*70\r\n$SDDBT,2.8,f,0.8,M,0.4,F*00\r\n$GPRMC,114315.00,A,4335.6130,N,00126.5280,E,0.0,121.0,130417,,*3D\r\n<DateTime/>
<DateTime12:27:02,2017-04-12>$TLBTI,11.9,V,62.6,F,*70\r\n$SDDBT,2.4,f,0.7,M,0.4,F*03\r\n$GPRMC,114316.00,A,4335.6132,N,00126.5281,E,0.0,122.0,130417,,*3E\r\n<DateTime/>
<DateTime12:27:03,2017-04-12>$TLBTI,11.9,V,62.6,F,*70\r\n$SDDBT,2.1,f,0.6,M,0.3,F*00\r\n$GPRMC,114317.00,A,4335.6132,N,00126.5281,E,0.1,123.0,130417,,*3F\r\n<DateTime/>
<DateTime12:27:04,2017-04-12>$TLBTI,11.9,V,62.6,F,*70\r\n$SDDBT,1.3,f,0.4,M,0.2,F*02\r\n$GPRMC,114318.00,A,4335.6132,N,00126.5282,E,0.1,124.0,130417,,*34\r\n$TLBTI,11.9,V,62.6,F,*70\r\n<DateTime/>
<DateTime12:27:05,2017-04-12>$SDDBT,1.4,f,0.4,M,0.2,F*05\r\n$GPRMC,114319.00,A,4335.6132,N,00126.5283,E,0.1,124.0,130417,,*34\r\n$TLBTI,11.9,V,62.6,F,*70\r\n<DateTime/>
<DateTime12:27:06,2017-04-12>$SDDBT,2.4,f,0.7,M,0.4,F*03\r\n$GPRMC,114320.00,A,4335.6133,N,00126.5283,E,0.0,125.0,130417,,*3F\r\n$TLBTI,11.9,V,62.6,F,*70\r\n<DateTime/>
<DateTime12:27:07,2017-04-12>$SDDBT,2.4,f,0.7,M,0.4,F*03\r\n$GPRMC,114321.00,A,4335.6133,N,00126.5282,E,0.0,126.0,130417,,*3C\r\n$TLBTI,11.9,V,62.6,F,*70\r\n$SDDBT,1.2,f,0.3,M,0.2,F*04\r\n<DateTime/>
<DateTime12:27:08,2017-04-12>$GPRMC,114322.00,A,4335.6133,N,00126.5281,E,0.0,125.0,130417,,*3F\r\n$TLBTI,12.0,V,62.6,F,*7A\r\n$SDDBT,1.9,f,0.6,M,0.3,F*0B\r\n<DateTime/>
<DateTime12:27:09,2017-04-12>$GPRMC,114323.00,A,4335.6132,N,00126.5280,E,0.0,126.0,130417,,*3D\r\n$TLBTI,11.9,V,62.6,F,*70\r\n$SDDBT,1.2,f,0.3,M,0.2,F*04\r\n<DateTime/>
<DateTime12:27:10,2017-04-12>$GPRMC,114323.00,A,4335.6133,N,00126.5279,E,0.0,126.0,130417,,*3A\r\n$TLBTI,11.9,V,62.6,F,*70\r\n$SDDBT,2.1,f,0.6,M,0.3,F*00\r\n$GPRMC,1<DateTime/>
<DateTime12:27:11,2017-04-12>14324.00,A,4335.6133,N,00126.5279,E,0.0,126.0,130417,,*3D\r\n$TLBTI,11.9,V,62.6,F,*70\r\n$SDDBT,1.7,f,0.5,M,0.2,F*07\r\n$GPRMC,114325.00,A,4335.6133,N,00126.5279,E,0.0,125.0,130417,,*3F\r\n<DateTime/>
<DateTime12:27:12,2017-04-12>$TLBTI,11.9,V,62.6,F,*70\r\n$SDDBT,1.7,f,0.5,M,0.2,F*07\r\n$GPRMC,114326.00,A,4335.6133,N,00126.5279,E,0.0,125.0,130417,,*3C\r\n<DateTime/>
<DateTime12:27:13,2017-04-12>$TLBTI,11.9,V,62.6,F,*70\r\n$SDDBT,1.7,f,0.5,M,0.2,F*07\r\n$GPRMC,114327.00,A,4335.6133,N,00126.5279,E,0.0,126.0,130417,,*3E\r\n<DateTime/>
<DateTime12:27:14,2017-04-12>$TLBTI,11.9,V,62.6,F,*70\r\n$SDDBT,2.1,f,0.6,M,0.3,F*00\r\n$GPRMC,114328.00,A,4335.6133,N,00126.5279,E,0.0,125.0,130417,,*32\r\n$TLBTI,11.9,V,62.6,F,*70\r\n<DateTime/>
<DateTime12:27:15,2017-04-12>$SDDBT,1.8,f,0.5,M,0.3,F*09\r\n$GPRMC,114329.00,A,4335.6133,N,00126.5279,E,0.0,126.0,130417,,*30\r\n$TLBTI,11.9,V,62.6,F,*70\r\n<DateTime/>
<DateTime12:27:16,2017-04-12>$SDDBT,2.1,f,0.6,M,0.3,F*00\r\n$GPRMC,114330.00,A,4335.6133,N,00126.5279,E,0.0,126.0,130417,,*38\r\n$TLBTI,12.0,V,62.6,F,*7A\r\n<DateTime/>
<DateTime12:27:17,2017-04-12>$SDDBT,1.8,f,0.5,M,0.3,F*09\r\n$GPRMC,114331.00,A,4335.6132,N,00126.5278,E,0.0,125.0,130417,,*3A\r\n$TLBTI,11.9,V,62.3,F,*75\r\n$SDDBT,1.2,f,0.3,M,0.2,F*04\r\n<DateTime/>
<DateTime12:27:18,2017-04-12>$GPRMC,114332.00,A,4335.6132,N,00126.5278,E,0.0,126.0,130417,,*3A\r\n$TLBTI,11.9,V,62.3,F,*75\r\n$SDDBT,2.4,f,0.7,M,0.4,F*03\r\n<DateTime/>
<DateTime12:27:19,2017-04-12>$GPRMC,114332.00,A,4335.6132,N,00126.5277,E,0.0,125.0,130417,,*36\r\n$TLBTI,11.9,V,62.1,F,*77\r\n$SDDBT,1.3,f,0.4,M,0.2,F*02\r\n<DateTime/>
<DateTime12:27:20,2017-04-12>$GPRMC,114333.00,A,4335.6132,N,00126.5277,E,0.0,126.0,130417,,*34\r\n$TLBTI,11.9,V,62.1,F,*77\r\n$SDDBT,2.3,f,0.7,M,0.3,F*03\r\n$GPRMC,114334.00,A,4335.6132,N,00126.5277,E,0.0,125.0,130417,,*30\r\n<DateTime/>
<DateTime12:27:21,2017-04-12>$TLBTI,11.9,V,62.0,F,*76\r\n$SDDBT,1.2,f,0.3,M,0.2,F*04\r\n$GPRMC,114335.00,A,4335.6132,N,00126.5277,E,0.0,126.0,130417,,*32\r\n<DateTime/>
<DateTime12:27:22,2017-04-12>$TLBTI,11.9,V,62.0,F,*76\r\n$SDDBT,1.2,f,0.3,M,0.2,F*04\r\n$GPRMC,114336.00,A,4335.6132,N,00126.5277,E,0.0,125.0,130417,,*32\r\n<DateTime/>
<DateTime12:27:23,2017-04-12>$TLBTI,11.9,V,62.0,F,*76\r\n$SDDBT,2.6,f,0.8,M,0.4,F*0E\r\n$GPRMC,114337.00,A,4335.6133,N,00126.5278,E,0.0,126.0,130417,,*3E\r\n$TLBTI,11.9,V,62.0,F,*76\r\n<DateTime/>
<DateTime12:27:24,2017-04-12>$SDDBT,1.2,f,0.3,M,0.2,F*04\r\n$GPRMC,114338.00,A,4335.6133,N,00126.5278,E,0.0,126.0,130417,,*31\r\n$TLBTI,11.9,V,62.0,F,*76\r\n<DateTime/>
<DateTime12:27:25,2017-04-12>$SDDBT,2.1,f,0.6,M,0.3,F*00\r\n$GPRMC,114339.00,A,4335.6133,N,00126.5278,E,0.0,126.0,130417,,*30\r\n$TLBTI,12.0,V,62.0,F,*7C\r\n<DateTime/>
<DateTime12:27:26,2017-04-12>$SDDBT,1.2,f,0.3,M,0.2,F*04\r\n$GPRMC,114340.00,A,4335.6134,N,00126.5279,E,0.0,126.0,130417,,*38\r\n$TLBTI,11.9,V,62.0,F,*76\r\n$SDDBT,1.2,f,0.3,M,0.2,F*04\r\n<DateTime/>
<DateTime12:27:27,2017-04-12>$GPRMC,114341.00,A,4335.6134,N,00126.5280,E,0.0,126.0,130417,,*3F\r\n$TLBTI,11.9,V,62.0,F,*76\r\n$SDDBT,1.2,f,0.3,M,0.2,F*04\r\n<DateTime/>
<DateTime12:27:28,2017-04-12>$GPRMC,114341.00,A,4335.6135,N,00126.5280,E,0.0,126.0,130417,,*3E\r\n$TLBTI,11.9,V,62.0,F,*76\r\n$SDDBT,1.2,f,0.3,M,0.2,F*04\r\n<DateTime/>
<DateTime12:27:29,2017-04-12>$GPRMC,114342.00,A,4335.6135,N,00126.5281,E,0.0,126.0,130417,,*3C\r\n$TLBTI,11.9,V,62.0,F,*76\r\n$SDDBT,1.2,f,0.3,M,0.2,F*04\r\n$GPRMC,114343.00,A,4335.6135,N,00126.5281,E,0.0,126.0,130417,,*3D\r\n<DateTime/>
<DateTime12:27:30,2017-04-12>$TLBTI,11.9,V,62.0,F,*76\r\n$SDDBT,1.2,f,0.3,M,0.2,F*04\r\n$GPRMC,114344.00,A,4335.6135,N,00126.5282,E,0.0,126.0,130417,,*39\r\n<DateTime/>
<DateTime12:27:31,2017-04-12>$TLBTI,11.9,V,62.0,F,*76\r\n$SDDBT,1.2,f,0.3,M,0.2,F*04\r\n$GPRMC,114345.00,A,4335.6135,N,00126.5282,E,0.0,126.0,130417,,*38\r\n<DateTime/>
<DateTime12:27:32,2017-04-12>$TLBTI,11.9,V,62.0,F,*76\r\n$SDDBT,1.5,f,0.4,M,0.2,F*04\r\n$GPRMC,114346.00,A,4335.6135,N,00126.5282,E,0.0,126.0,130417,,*3B\r\n$TLBTI,11.9,V,62.0,F,*76\r\n<DateTime/>
<DateTime12:27:33,2017-04-12>$SDDBT,1.4,f,0.4,M,0.2,F*05\r\n$GPRMC,114347.00,A,4335.6135,N,00126.5282,E,0.0,127.0,130417,,*3B\r\n$TLBTI,11.9,V,62.0,F,*76\r\n<DateTime/>
<DateTime12:27:34,2017-04-12>$SDDBT,2.7,f,0.8,M,0.4,F*0F\r\n$GPRMC,114348.00,A,4335.6134,N,00126.5282,E,0.0,127.0,130417,,*35\r\n$TLBTI,11.9,V,62.0,F,*76\r\n<DateTime/>
<DateTime12:27:35,2017-04-12>$SDDBT,1.3,f,0.4,M,0.2,F*02\r\n$GPRMC,114349.00,A,4335.6134,N,00126.5282,E,0.0,127.0,130417,,*34\r\n$TLBTI,11.9,V,62.0,F,*76\r\n$SDDBT,2.1,f,0.6,M,0.3,F*00\r\n<DateTime/>
<DateTime12:27:36,2017-04-12>$GPRMC,114350.00,A,4335.6134,N,00126.5281,E,0.0,127.0,130417,,*3F\r\n$TLBTI,11.9,V,62.0,F,*76\r\n$SDDBT,2.1,f,0.6,M,0.3,F*00\r\n<DateTime/>
<DateTime12:27:37,2017-04-12>$GPRMC,114351.00,A,4335.6133,N,00126.5281,E,0.0,127.0,130417,,*39\r\n$TLBTI,11.9,V,62.0,F,*76\r\n$SDDBT,2.5,f,0.7,M,0.4,F*02\r\n<DateTime/>
<DateTime12:27:38,2017-04-12>$GPRMC,114351.00,A,4335.6133,N,00126.5281,E,0.0,127.0,130417,,*39\r\n$TLBTI,11.9,V,62.0,F,*76\r\n$SDDBT,3.3,f,1.0,M,0.5,F*02\r\n$GPRMC,114352.00,A,4335.6133,N,00126.5280,E,0.0,130.0,130417,,*3D\r\n<DateTime/>
<DateTime12:27:39,2017-04-12>$TLBTI,11.9,V,62.0,F,*76\r\n$SDDBT,3.3,f,1.0,M,0.5,F*02\r\n$GPRMC,114353.00,A,4335.6133,N,00126.5280,E,0.0,141.0,130417,,*3A\r\n<DateTime/>
<DateTime12:27:40,2017-04-12>$TLBTI,11.9,V,62.0,F,*76\r\n$SDDBT,2.3,f,0.7,M,0.3,F*03\r\n$GPRMC,114354.00,A,4335.6133,N,00126.5280,E,0.2,157.0,130417,,*38\r\n<DateTime/>
<DateTime12:27:41,2017-04-12>$TLBTI,11.9,V,62.0,F,*76\r\n$SDDBT,3.9,f,1.2,M,0.6,F*09\r\n$GPRMC,114355.00,A,4335.6132,N,00126.5278,E,0.2,172.0,130417,,*38\r\n$TLBTI,12.0,V,62.<DateTime/>
<DateTime12:27:42,2017-04-12>0,F,*7C\r\n$SDDBT,2.5,f,0.7,M,0.4,F*02\r\n$GPRMC,114356.00,A,4335.6131,N,00126.5277,E,0.2,179.0,130417,,*3C\r\n$TLBTI,11.9,V,62.0,F,*76\r\n<DateTime/>
<DateTime12:27:43,2017-04-12>$SDDBT,4.0,f,1.2,M,0.6,F*07\r\n$GPRMC,114357.00,A,4335.6130,N,00126.5275,E,0.0,185.0,130417,,*3F\r\n$TLBTI,11.9,V,62.0,F,*76\r\n<DateTime/>
<DateTime12:27:44,2017-04-12>$SDDBT,4.5,f,1.3,M,0.7,F*02\r\n$GPRMC,114358.00,A,4335.6130,N,00126.5275,E,0.2,186.0,130417,,*31\r\n$TLBTI,11.9,V,62.0,F,*76\r\n<DateTime/>
<DateTime12:27:45,2017-04-12>$SDDBT,4.5,f,1.3,M,0.7,F*02\r\n$GPRMC,114359.00,A,4335.6130,N,00126.5275,E,0.5,186.0,130417,,*37\r\n$TLBTI,11.9,V,62.0,F,*76\r\n$SDDBT,3.8,f,1.1,M,0.6,F*0B\r\n<DateTime/>
<DateTime12:27:46,2017-04-12>$GPRMC,114400.00,A,4335.6128,N,00126.5276,E,0.6,186.0,130417,,*35\r\n$TLBTI,11.9,V,61.7,F,*72\r\n$SDDBT,2.3,f,0.7,M,0.3,F*03\r\n<DateTime/>
<DateTime12:27:47,2017-04-12>$GPRMC,114400.00,A,4335.6126,N,00126.5277,E,0.6,187.0,130417,,*3B\r\n$TLBTI,11.9,V,61.7,F,*72\r\n$SDDBT,3.3,f,1.0,M,0.5,F*02\r\n<DateTime/>
<DateTime12:27:48,2017-04-12>$GPRMC,114401.00,A,4335.6125,N,00126.5280,E,0.5,188.0,130417,,*3D\r\n$TLBTI,11.9,V,61.6,F,*73\r\n$SDDBT,3.8,f,1.1,M,0.6,F*0B\r\n$GPRMC,114402.00,A,4335.6125,N,00126.5280,E,0.5,187.0,130417,,*31\r\n<DateTime/>
<DateTime12:27:49,2017-04-12>$TLBTI,11.9,V,61.6,F,*73\r\n$SDDBT,2.8,f,0.8,M,0.4,F*00\r\n$GPRMC,114403.00,A,4335.6124,N,00126.5280,E,0.4,188.0,130417,,*3F\r\n<DateTime/>
<DateTime12:27:50,2017-04-12>$TLBTI,11.9,V,61.5,F,*70\r\n$SDDBT,3.1,f,0.9,M,0.5,F*08\r\n$GPRMC,114404.00,A,4335.6124,N,00126.5283,E,0.4,187.0,130417,,*34\r\n<DateTime/>
<DateTime12:27:51,2017-04-12>$TLBTI,11.9,V,61.5,F,*70\r\n$SDDBT,3.3,f,1.0,M,0.5,F*02\r\n$GPRMC,114405.00,A,4335.6122,N,00126.5281,E,0.4,188.0,130417,,*3E\r\n$TLBTI,11.9,V,61.5,F,*70\r\n<DateTime/>
<DateTime12:27:52,2017-04-12>$SDDBT,3.1,f,0.9,M,0.5,F*08\r\n$GPRMC,114406.00,A,4335.6121,N,00126.5281,E,0.4,189.0,130417,,*3F\r\n$TLBTI,11.9,V,61.5,F,*70\r\n<DateTime/>
<DateTime12:27:53,2017-04-12>$SDDBT,2.7,f,0.8,M,0.4,F*0F\r\n$GPRMC,114407.00,A,4335.6120,N,00126.5280,E,0.5,188.0,130417,,*3E\r\n$TLBTI,11.9,V,61.5,F,*70\r\n<DateTime/>
<DateTime12:27:54,2017-04-12>$SDDBT,2.9,f,0.9,M,0.4,F*00\r\n$GPRMC,114408.00,A,4335.6117,N,00126.5278,E,0.6,187.0,130417,,*3E\r\n$TLBTI,11.9,V,61.5,F,*70\r\n$SDDBT,2.3,f,0.7,M,0.3,F*03\r\n<DateTime/>
<DateTime12:27:55,2017-04-12>$GPRMC,114409.00,A,4335.6115,N,00126.5276,E,0.6,186.0,130417,,*32\r\n$TLBTI,11.9,V,61.5,F,*70\r\n$SDDBT,2.5,f,0.7,M,0.4,F*02\r\n<DateTime/>
<DateTime12:27:56,2017-04-12>$GPRMC,114409.00,A,4335.6112,N,00126.5274,E,0.6,187.0,130417,,*36\r\n$TLBTI,12.0,V,61.5,F,*7A\r\n$SDDBT,2.1,f,0.6,M,0.3,F*00\r\n<DateTime/>
<DateTime12:27:57,2017-04-12>$GPRMC,114410.00,A,4335.6109,N,00126.5271,E,0.7,186.0,130417,,*31\r\n$TLBTI,12.0,V,61.5,F,*7A\r\n$SDDBT,2.3,f,0.7,M,0.3,F*03\r\n$GPRMC,114411.00,A,4335.6109,N,00126.5271,E,0.8,186.0,130417,,*3F\r\n<DateTime/>
<DateTime12:27:58,2017-04-12>$TLBTI,11.9,V,61.5,F,*70\r\n$SDDBT,2.9,f,0.9,M,0.4,F*00\r\n$GPRMC,114412.00,A,4335.6106,N,00126.5269,E,0.9,187.0,130417,,*3A\r\n<DateTime/>
<DateTime12:27:59,2017-04-12>$TLBTI,11.9,V,61.5,F,*70\r\n$SDDBT,3.4,f,1.0,M,0.5,F*05\r\n$GPRMC,114413.00,A,4335.6104,N,00126.5267,E,0.9,189.0,130417,,*39\r\n<DateTime/>
<DateTime12:28:00,2017-04-12>$TLBTI,11.9,V,61.5,F,*70\r\n$SDDBT,3.2,f,0.9,M,0.5,F*0B\r\n$GPRMC,114414.00,A,4335.6101,N,00126.5266,E,0.9,189.0,130417,,*3A\r\n$TLBTI,11.9,V,61.5,F,*70\r\n<DateTime/>
<DateTime12:28:01,2017-04-12>$SDDBT,3.1,f,0.9,M,0.5,F*08\r\n$GPRMC,114415.00,A,4335.6098,N,00126.5265,E,0.9,188.0,130417,,*38\r\n$TLBTI,11.9,V,61.5,F,*70\r\n<DateTime/>
<DateTime12:28:02,2017-04-12>$SDDBT,3.1,f,0.9,M,0.5,F*08\r\n$GPRMC,114416.00,A,4335.6095,N,00126.5263,E,0.9,189.0,130417,,*31\r\n$TLBTI,11.9,V,61.5,F,*70\r\n<DateTime/>
<DateTime12:28:03,2017-04-12>$SDDBT,2.3,f,0.7,M,0.3,F*03\r\n$GPRMC,114417.00,A,4335.6092,N,00126.5263,E,0.9,188.0,130417,,*36\r\n$TLBTI,11.9,V,61.5,F,*70\r\n$SDDBT,2.4,f,0.7,M,0.4,F*03\r\n<DateTime/>
<DateTime12:28:04,2017-04-12>$GPRMC,114418.00,A,4335.6089,N,00126.5261,E,0.9,189.0,130417,,*30\r\n$TLBTI,11.9,V,61.5,F,*70\r\n$SDDBT,1.4,f,0.4,M,0.2,F*05\r\n<DateTime/>
<DateTime12:28:05,2017-04-12>$GPRMC,114418.00,A,4335.6086,N,00126.5260,E,0.9,188.0,130417,,*3F\r\n$TLBTI,11.9,V,61.5,F,*70\r\n$SDDBT,1.2,f,0.3,M,0.2,F*04\r\n<DateTime/>
<DateTime12:28:06,2017-04-12>$GPRMC,114419.00,A,4335.6084,N,00126.5259,E,0.9,189.0,130417,,*37\r\n$TLBTI,11.9,V,61.5,F,*70\r\n$SDDBT,3.0,f,0.9,M,0.5,F*09\r\n$GPRMC,114420.00,A,4335.6081,N,00126.5259,E,0.9,189.0,130417,,*38\r\n<DateTime/>
<DateTime12:28:07,2017-04-12>$TLBTI,11.9,V,61.5,F,*70\r\n$SDDBT,2.1,f,0.6,M,0.3,F*00\r\n$GPRMC,114421.00,A,4335.6081,N,00126.5259,E,1.0,190.0,130417,,*39\r\n<DateTime/>
<DateTime12:28:08,2017-04-12>$TLBTI,11.9,V,61.5,F,*70\r\n$SDDBT,2.9,f,0.9,M,0.4,F*00\r\n$GPRMC,114422.00,A,4335.6078,N,00126.5258,E,1.0,190.0,130417,,*3D\r\n<DateTime/>
<DateTime12:28:09,2017-04-12>$TLBTI,11.9,V,61.5,F,*70\r\n$SDDBT,2.6,f,0.8,M,0.4,F*0E\r\n$GPRMC,114423.00,A,4335.6075,N,00126.5257,E,1.0,190.0,130417,,*3E\r\n$TLBTI,11.9,V,61.5,F,*70\r\n<DateTime/>
<DateTime12:28:10,2017-04-12>$SDDBT,3.1,f,0.9,M,0.5,F*08\r\n$GPRMC,114424.00,A,4335.6072,N,00126.5257,E,1.0,190.0,130417,,*3E\r\n$TLBTI,11.9,V,61.5,F,*70\r\n<DateTime/>
<DateTime12:28:11,2017-04-12>$SDDBT,2.6,f,0.8,M,0.4,F*0E\r\n$GPRMC,114425.00,A,4335.6070,N,00126.5257,E,0.9,190.0,130417,,*35\r\n$TLBTI,12.0,V,61.5,F,*7A\r\n<DateTime/>
<DateTime12:28:12,2017-04-12>$SDDBT,2.1,f,0.6,M,0.3,F*00\r\n$GPRMC,114426.00,A,4335.6067,N,00126.5257,E,0.9,190.0,130417,,*30\r\n$TLBTI,11.9,V,61.5,F,*70\r\n$SDDBT,2<DateTime/>
<DateTime12:28:13,2017-04-12>.4,f,0.7,M,0.4,F*03\r\n$GPRMC,114427.00,A,4335.6064,N,00126.5257,E,1.0,190.0,130417,,*3A\r\n$TLBTI,11.9,V,61.5,F,*70\r\n$SDDBT,2.7,f,0.8,M,0.4,F*0F\r\n<DateTime/>
<DateTime12:28:14,2017-04-12>$GPRMC,114428.00,A,4335.6062,N,00126.5256,E,1.0,189.0,130417,,*3A\r\n$TLBTI,11.9,V,61.5,F,*70\r\n$SDDBT,2.4,f,0.7,M,0.4,F*03\r\n<DateTime/>
<DateTime12:28:15,2017-04-12>$GPRMC,114429.00,A,4335.6059,N,00126.5256,E,0.9,189.0,130417,,*3B\r\n$TLBTI,11.9,V,61.5,F,*70\r\n$SDDBT,3.0,f,0.9,M,0.5,F*09\r\n<DateTime/>
<DateTime12:28:16,2017-04-12>$GPRMC,114429.00,A,4335.6056,N,00126.5256,E,0.9,190.0,130417,,*3C\r\n$TLBTI,11.9,V,61.5,F,*70\r\n$SDDBT,3.0,f,0.9,M,0.5,F*09\r\n$GPRMC,114430.00,A,4335.6054,N,00126.5255,E,0.9,190.0,130417,,*35\r\n<DateTime/>
<DateTime12:28:17,2017-04-12>$TLBTI,11.9,V,61.5,F,*70\r\n$SDDBT,2.7,f,0.8,M,0.4,F*0F\r\n$GPRMC,114431.00,A,4335.6054,N,00126.5255,E,0.9,190.0,130417,,*34\r\n<DateTime/>
<DateTime12:28:18,2017-04-12>$TLBTI,11.9,V,61.5,F,*70\r\n$SDDBT,2.4,f,0.7,M,0.4,F*03\r\n$GPRMC,114432.00,A,4335.6054,N,00126.5255,E,1.0,190.0,130417,,*3F\r\n<DateTime/>
<DateTime12:28:19,2017-04-12>$TLBTI,11.9,V,61.7,F,*72\r\n$SDDBT,3.5,f,1.0,M,0.5,F*04\r\n$GPRMC,114433.00,A,4335.6048,N,00126.5254,E,0.9,190.0,130417,,*3A\r\n$TLBTI,11.9,V,61.7,F,*72\r\n<DateTime/>
<DateTime12:28:20,2017-04-12>$SDDBT,2.2,f,0.6,M,0.3,F*03\r\n$GPRMC,114434.00,A,4335.6045,N,00126.5253,E,0.9,189.0,130417,,*3F\r\n$TLBTI,11.9,V,61.8,F,*7D\r\n<DateTime/>
<DateTime12:28:21,2017-04-12>$SDDBT,3.4,f,1.0,M,0.5,F*05\r\n$GPRMC,114435.00,A,4335.6043,N,00126.5253,E,1.0,189.0,130417,,*30\r\n$TLBTI,11.9,V,61.8,F,*7D\r\n<DateTime/>
<DateTime12:28:22,2017-04-12>$SDDBT,3.2,f,0.9,M,0.5,F*0B\r\n$GPRMC,114436.00,A,4335.6040,N,00126.5252,E,0.9,189.0,130417,,*39\r\n$TLBTI,11.9,V,61.9,F,*7C\r\n$SDDBT,2.7,f,0.8,M,0.4,F*0F\r\n<DateTime/>
<DateTime12:28:23,2017-04-12>$GPRMC,114437.00,A,4335.6037,N,00126.5252,E,0.9,189.0,130417,,*38\r\n$TLBTI,11.9,V,61.9,F,*7C\r\n$SDDBT,2.4,f,0.7,M,0.4,F*03\r\n<DateTime/>
<DateTime12:28:24,2017-04-12>$GPRMC,114438.00,A,4335.6035,N,00126.5251,E,1.0,190.0,130417,,*36\r\n$TLBTI,11.9,V,61.9,F,*7C\r\n$SDDBT,3.0,f,0.9,M,0.5,F*09\r\n<DateTime/>
<DateTime12:28:25,2017-04-12>$GPRMC,114438.00,A,4335.6032,N,00126.5251,E,1.0,190.0,130417,,*31\r\n$TLBTI,11.9,V,61.9,F,*7C\r\n$SDDBT,2.7,f,0.8,M,0.4,F*0F\r\n$GPRMC,114439.00,A,4335.6032,N,00126.5251,E,1.0,190.0,130417,,*30\r\n<DateTime/>
<DateTime12:28:26,2017-04-12>$TLBTI,11.9,V,61.9,F,*7C\r\n$SDDBT,2.6,f,0.8,M,0.4,F*0E\r\n$GPRMC,114440.00,A,4335.6029,N,00126.5251,E,1.0,190.0,130417,,*34\r\n<DateTime/>
<DateTime12:28:27,2017-04-12>$TLBTI,11.9,V,61.9,F,*7C\r\n$SDDBT,3.2,f,0.9,M,0.5,F*0B\r\n$GPRMC,114441.00,A,4335.6027,N,00126.5250,E,1.0,190.0,130417,,*3A\r\n<DateTime/>
<DateTime12:28:28,2017-04-12>$TLBTI,11.9,V,61.9,F,*7C\r\n$SDDBT,3.0,f,0.9,M,0.5,F*09\r\n$GPRMC,114442.00,A,4335.6024,N,00126.5250,E,0.9,189.0,130417,,*3A\r\n$TLBTI,11.9,V,61.9,F,*7C\r\n<DateTime/>
<DateTime12:28:29,2017-04-12>$SDDBT,2.4,f,0.7,M,0.4,F*03\r\n$GPRMC,114443.00,A,4335.6021,N,00126.5249,E,1.0,190.0,130417,,*36\r\n$TLBTI,11.9,V,61.9,F,*7C\r\n<DateTime/>
<DateTime12:28:30,2017-04-12>$SDDBT,3.2,f,0.9,M,0.5,F*0B\r\n$GPRMC,114444.00,A,4335.6018,N,00126.5249,E,1.0,189.0,130417,,*33\r\n$TLBTI,11.9,V,61.9,F,*7C\r\n<DateTime/>
<DateTime12:28:31,2017-04-12>$SDDBT,2.9,f,0.9,M,0.4,F*00\r\n$GPRMC,114445.00,A,4335.6015,N,00126.5248,E,1.1,189.0,130417,,*3F\r\n$TLBTI,11.9,V,61.9,F,*7C\r\n$SDDBT,2.6,f,0.8,M,0.4,F*0E\r\n<DateTime/>
<DateTime12:28:32,2017-04-12>$GPRMC,114446.00,A,4335.6012,N,00126.5247,E,1.2,190.0,130417,,*3F\r\n$TLBTI,11.9,V,61.9,F,*7C\r\n$SDDBT,3.0,f,0.9,M,0.5,F*09\r\n<DateTime/>
<DateTime12:28:33,2017-04-12>$GPRMC,114447.00,A,4335.6008,N,00126.5247,E,1.1,190.0,130417,,*36\r\n$TLBTI,11.9,V,61.9,F,*7C\r\n$SDDBT,2.4,f,0.7,M,0.4,F*03\r\n<DateTime/>
<DateTime12:28:34,2017-04-12>$GPRMC,114447.00,A,4335.6005,N,00126.5246,E,1.1,189.0,130417,,*32\r\n$TLBTI,11.9,V,61.9,F,*7C\r\n$SDDBT,2.3,f,0.7,M,0.3,F*03\r\n$GPRMC,114448.00,A,4335.6005,N,00126.5246,E,1.0,189.0,130417,,*3C\r\n<DateTime/>
<DateTime12:28:35,2017-04-12>$TLBTI,11.9,V,61.9,F,*7C\r\n$SDDBT,2.2,f,0.6,M,0.3,F*03\r\n$GPRMC,114449.00,A,4335.6002,N,00126.5246,E,1.0,189.0,130417,,*3A\r\n<DateTime/>
<DateTime12:28:36,2017-04-12>$TLBTI,11.9,V,61.9,F,*7C\r\n$SDDBT,2.1,f,0.6,M,0.3,F*00\r\n$GPRMC,114450.00,A,4335.6000,N,00126.5245,E,1.0,189.0,130417,,*33\r\n<DateTime/>
<DateTime12:28:37,2017-04-12>$TLBTI,11.9,V,61.9,F,*7C\r\n$SDDBT,2.5,f,0.7,M,0.4,F*02\r\n$GPRMC,114451.00,A,4335.5997,N,00126.5244,E,1.0,189.0,130417,,*37\r\n$TLBTI,11.9,V,61.9,F,*7C\r\n<DateTime/>
<DateTime12:28:38,2017-04-12>$SDDBT,2.5,f,0.7,M,0.4,F*02\r\n$GPRMC,114452.00,A,4335.5994,N,00126.5243,E,1.1,189.0,130417,,*31\r\n$TLBTI,11.9,V,61.9,F,*7C\r\n<DateTime/>
<DateTime12:28:39,2017-04-12>$SDDBT,2.7,f,0.8,M,0.4,F*0F\r\n$GPRMC,114453.00,A,4335.5991,N,00126.5242,E,1.0,189.0,130417,,*35\r\n$TLBTI,11.9,V,61.9,F,*7C\r\n<DateTime/>
<DateTime12:28:40,2017-04-12>$SDDBT,3.0,f,0.9,M,0.5,F*09\r\n$GPRMC,114454.00,A,4335.5988,N,00126.5241,E,1.0,190.0,130417,,*31\r\n$TLBTI,11.9,V,61.9,F,*7C\r\n$SDDBT,2.2,f,0.6,M,0.3,F*03\r\n<DateTime/>
<DateTime12:28:41,2017-04-12>$GPRMC,114455.00,A,4335.5985,N,00126.5241,E,1.0,191.0,130417,,*3C\r\n$TLBTI,11.9,V,61.9,F,*7C\r\n$SDDBT,2.3,f,0.7,M,0.3,F*03\r\n<DateTime/>
<DateTime12:28:42,2017-04-12>$GPRMC,114456.00,A,4335.5982,N,00126.5240,E,1.0,190.0,130417,,*38\r\n$TLBTI,12.0,V,61.9,F,*76\r\n$SDDBT,2.1,f,0.6,M,0.3,F*00\r\n<DateTime/>
<DateTime12:28:43,2017-04-12>$GPRMC,114456.00,A,4335.5979,N,00126.5240,E,1.0,189.0,130417,,*34\r\n$TLBTI,12.0,V,61.9,F,*76\r\n$SDDBT,5.7,f,1.7,M,0.9,F*0B\r\n<DateTime/>
<DateTime12:28:44,2017-04-12>$GPRMC,114457.00,A,4335.5979,N,00126.5240,E,1.0,190.0,130417,,*3D\r\n$TLBTI,11.9,V,61.9,F,*7C\r\n$SDDBT,4.4,f,1.3,M,0.7,F*03\r\n$GPRMC,114458.00,A,4335.5976,N,00126.5241,E,1.0,190.0,130417,,*3C\r\n<DateTime/>
<DateTime12:28:45,2017-04-12>$TLBTI,11.9,V,61.9,F,*7C\r\n$SDDBT,2.1,f,0.6,M,0.3,F*00\r\n$GPRMC,114459.00,A,4335.5973,N,00126.5241,E,0.9,189.0,130417,,*38\r\n<DateTime/>
<DateTime12:28:46,2017-04-12>$TLBTI,12.0,V,61.9,F,*76\r\n$SDDBT,4.5,f,1.3,M,0.7,F*02\r\n$GPRMC,114500.00,A,4335.5970,N,00126.5241,E,0.8,189.0,130417,,*37\r\n<DateTime/>
<DateTime12:28:47,2017-04-12>$TLBTI,11.9,V,61.9,F,*7C\r\n$SDDBT,2.1,f,0.6,M,0.3,F*00\r\n$GPRMC,114501.00,A,4335.5967,N,00126.5241,E,0.8,189.0,130417,,*30\r\n$TLBTI,11.9,V,61.9,F,*7C\r\n<DateTime/>
<DateTime12:28:48,2017-04-12>$SDDBT,2.1,f,0.6,M,0.3,F*00\r\n$GPRMC,114502.00,A,4335.5965,N,00126.5241,E,0.6,189.0,130417,,*3F\r\n$TLBTI,12.0,V,61.9,F,*76\r\n<DateTime/>
<DateTime12:28:49,2017-04-12>$SDDBT,4.6,f,1.4,M,0.7,F*06\r\n$GPRMC,114503.00,A,4335.5963,N,00126.5240,E,0.5,190.0,130417,,*32\r\n$TLBTI,11.9,V,61.7,F,*72\r\n<DateTime/>
<DateTime12:28:50,2017-04-12>$SDDBT,4.4,f,1.3,M,0.7,F*03\r\n$GPRMC,114504.00,A,4335.5962,N,00126.5240,E,0.5,189.0,130417,,*3C\r\n$TLBTI,11.9,V,61.7,F,*72\r\n$SDDBT,4.4,f,1.3,M,0.7,F*03\r\n<DateTime/>
<DateTime12:28:51,2017-04-12>$GPRMC,114505.00,A,4335.5960,N,00126.5241,E,0.4,189.0,130417,,*3F\r\n$TLBTI,11.9,V,61.8,F,*7D\r\n$SDDBT,2.1,f,0.6,M,0.3,F*00\r\n<DateTime/>
<DateTime12:28:52,2017-04-12>$GPRMC,114506.00,A,4335.5959,N,00126.5240,E,0.4,189.0,130417,,*37\r\n$TLBTI,11.9,V,61.8,F,*7D\r\n$SDDBT,2.1,f,0.6,M,0.3,F*00\r\n<DateTime/>
<DateTime12:28:53,2017-04-12>$GPRMC,114507.00,A,4335.5957,N,00126.5241,E,0.4,189.0,130417,,*39\r\n$TLBTI,11.9,V,61.6,F,*73\r\n$SDDBT,4.7,f,1.4,M,0.7,F*07\r\n$GPRMC,114507.00,A,4335.5957,N,00126.5241,E,0.3,190.0,130417,,*36\r\n<DateTime/>
<DateTime12:28:54,2017-04-12>$TLBTI,11.9,V,61.6,F,*73\r\n$SDDBT,2.1,f,0.6,M,0.3,F*00\r\n$GPRMC,114508.00,A,4335.5957,N,00126.5241,E,0.3,189.0,130417,,*31\r\n<DateTime/>
<DateTime12:28:55,2017-04-12>$TLBTI,11.9,V,61.8,F,*7D\r\n$SDDBT,2.1,f,0.6,M,0.3,F*00\r\n$GPRMC,114509.00,A,4335.5955,N,00126.5240,E,0.2,189.0,130417,,*32\r\n<DateTime/>
<DateTime12:28:56,2017-04-12>$TLBTI,11.9,V,61.8,F,*7D\r\n$SDDBT,2.1,f,0.6,M,0.3,F*00\r\n$GPRMC,114510.00,A,4335.5954,N,00126.5240,E,0.2,190.0,130417,,*33\r\n$TLBTI,11.9,V,61.8,F,*7D\r\n<DateTime/>
<DateTime12:28:57,2017-04-12>$SDDBT,2.1,f,0.6,M,0.3,F*00\r\n$GPRMC,114511.00,A,4335.5954,N,00126.5240,E,0.2,190.0,130417,,*32\r\n$TLBTI,11.9,V,61.9,F,*7C\r\n<DateTime/>
<DateTime12:28:58,2017-04-12>$SDDBT,2.1,f,0.6,M,0.3,F*00\r\n$GPRMC,114512.00,A,4335.5953,N,00126.5240,E,0.2,191.0,130417,,*37\r\n$TLBTI,11.9,V,61.9,F,*7C\r\n<DateTime/>
<DateTime12:28:59,2017-04-12>$SDDBT,2.1,f,0.6,M,0.3,F*00\r\n$GPRMC,114513.00,A,4335.5953,N,00126.5239,E,0.3,190.0,130417,,*38\r\n$TLBTI,11.9,V,61.9,F,*7C\r\n$SDDBT,2.3,f,0.7,M,0.3,F*03\r\n<DateTime/>
<DateTime12:29:00,2017-04-12>$GPRMC,114514.00,A,4335.5952,N,00126.5239,E,0.4,189.0,130417,,*31\r\n$TLBTI,11.9,V,61.9,F,*7C\r\n$SDDBT,2.1,f,0.6,M,0.3,F*00\r\n<DateTime/>
<DateTime12:29:01,2017-04-12>$GPRMC,114514.00,A,4335.5950,N,00126.5239,E,0.4,189.0,130417,,*33\r\n$TLBTI,11.9,V,61.9,F,*7C\r\n$SDDBT,5.4,f,1.6,M,0.9,F*09\r\n<DateTime/>
<DateTime12:29:02,2017-04-12>$GPRMC,114515.00,A,4335.5950,N,00126.5239,E,0.4,188.0,130417,,*33\r\n$TLBTI,11.9,V,61.9,F,*7C\r\n$SDDBT,4.7,f,1.4,M,0.7,F*07\r\n$GPRMC,114516.00,A,4335.5948,N,00126.5239,E,0.5,188.0,130417,,*38\r\n<DateTime/>
<DateTime12:29:03,2017-04-12>$TLBTI,11.9,V,61.9,F,*7C\r\n$SDDBT,4.2,f,1.2,M,0.7,F*04\r\n$GPRMC,114517.00,A,4335.5946,N,00126.5239,E,0.4,187.0,130417,,*39\r\n<DateTime/>
<DateTime12:29:04,2017-04-12>$TLBTI,11.9,V,61.9,F,*7C\r\n$SDDBT,4.7,f,1.4,M,0.7,F*07\r\n$GPRMC,114518.00,A,4335.5945,N,00126.5238,E,0.5,188.0,130417,,*3A\r\n<DateTime/>
<DateTime12:29:05,2017-04-12>$TLBTI,11.9,V,61.9,F,*7C\r\n$SDDBT,2.1,f,0.6,M,0.3,F*00\r\n$GPRMC,114519.00,A,4335.5943,N,00126.5238,E,0.5,188.0,130417,,*3D\r\n$TLBTI,11.9,V,61.9,F,*7C\r\n<DateTime/>
<DateTime12:29:06,2017-04-12>$SDDBT,2.1,f,0.6,M,0.3,F*00\r\n$GPRMC,114520.00,A,4335.5939,N,00126.5237,E,0.6,189.0,130417,,*37\r\n$TLBTI,11.9,V,61.9,F,*7C\r\n<DateTime/>
<DateTime12:29:07,2017-04-12>$SDDBT,4.2,f,1.2,M,0.7,F*04\r\n$GPRMC,114521.00,A,4335.5937,N,00126.5237,E,0.7,190.0,130417,,*31\r\n$TLBTI,11.9,V,61.9,F,*7C\r\n<DateTime/>
<DateTime12:29:08,2017-04-12>$SDDBT,4.2,f,1.2,M,0.7,F*04\r\n$GPRMC,114522.00,A,4335.5935,N,00126.5236,E,0.7,189.0,130417,,*39\r\n$TLBTI,11.9,V,61.9,F,*7C\r\n$SDDBT,4.0,f,1.2,M,0.6,F*07\r\n<DateTime/>
<DateTime12:29:09,2017-04-12>$GPRMC,114523.00,A,4335.5932,N,00126.5236,E,0.7,190.0,130417,,*37\r\n$TLBTI,11.9,V,61.9,F,*7C\r\n$SDDBT,3.8,f,1.1,M,0.6,F*0B\r\n<DateTime/>
<DateTime12:29:10,2017-04-12>$GPRMC,114523.00,A,4335.5932,N,00126.5236,E,0.7,190.0,130417,,*37\r\n$TLBTI,11.9,V,61.9,F,*7C\r\n$SDDBT,4.5,f,1.3,M,0.7,F*02\r\n<DateTime/>
<DateTime12:29:11,2017-04-12>$GPRMC,114524.00,A,4335.5931,N,00126.5237,E,0.7,190.0,130417,,*32\r\n$TLBTI,11.9,V,61.9,F,*7C\r\n$SDDBT,3.3,f,1.0,M,0.5,F*02\r\n<DateTime/>
<DateTime12:29:12,2017-04-12>$GPRMC,114525.00,A,4335.5929,N,00126.5236,E,0.6,191.0,130417,,*3B\r\n$TLBTI,11.9,V,61.9,F,*7C\r\n$SDDBT,3.6,f,1.1,M,0.6,F*05\r\n$GPRMC,114526.00,A,4335.5927,N,00126.5236,E,0.6,191.0,130417,,*36\r\n<DateTime/>
<DateTime12:29:13,2017-04-12>$TLBTI,11.9,V,61.9,F,*7C\r\n$SDDBT,3.8,f,1.1,M,0.6,F*0B\r\n$GPRMC,114527.00,A,4335.5925,N,00126.5236,E,0.6,190.0,130417,,*34\r\n<DateTime/>
<DateTime12:29:14,2017-04-12>$TLBTI,11.9,V,61.9,F,*7C\r\n$SDDBT,3.6,f,1.1,M,0.6,F*05\r\n$GPRMC,114528.00,A,4335.5923,N,00126.5236,E,0.6,190.0,130417,,*3D\r\n<DateTime/>
<DateTime12:29:15,2017-04-12>$TLBTI,11.9,V,61.9,F,*7C\r\n$SDDBT,3.5,f,1.0,M,0.5,F*04\r\n$GPRMC,114529.00,A,4335.5921,N,00126.5235,E,0.6,190.0,130417,,*3D\r\n$TLBTI,11.9,V,61.9,F,*7C\r\n<DateTime/>
<DateTime12:29:16,2017-04-12>$SDDBT,3.5,f,1.0,M,0.5,F*04\r\n$GPRMC,114530.00,A,4335.5920,N,00126.5235,E,0.6,190.0,130417,,*34\r\n$TLBTI,11.9,V,61.9,F,*7C\r\n<DateTime/>
<DateTime12:29:17,2017-04-12>$SDDBT,3.8,f,1.1,M,0.6,F*0B\r\n$GPRMC,114531.00,A,4335.5918,N,00126.5234,E,0.6,190.0,130417,,*3F\r\n$TLBTI,11.9,V,61.9,F,*7C\r\n<DateTime/>
<DateTime12:29:18,2017-04-12>$SDDBT,3.0,f,0.9,M,0.5,F*09\r\n$GPRMC,114532.00,A,4335.5916,N,00126.5234,E,0.6,190.0,130417,,*32\r\n$TLBTI,11.9,V,61.9,F,*7C\r\n$SDDBT,3.4,f,1.0,M,0.5,F*05\r\n<DateTime/>
<DateTime12:29:19,2017-04-12>$GPRMC,114532.00,A,4335.5916,N,00126.5234,E,0.6,191.0,130417,,*33\r\n$TLBTI,11.9,V,61.9,F,*7C\r\n$SDDBT,4.5,f,1.3,M,0.7,F*02\r\n<DateTime/>
<DateTime12:29:20,2017-04-12>$GPRMC,114533.00,A,4335.5914,N,00126.5234,E,0.6,192.0,130417,,*33\r\n$TLBTI,11.9,V,61.9,F,*7C\r\n$SDDBT,3.2,f,0.9,M,0.5,F*0B\r\n<DateTime/>
<DateTime12:29:21,2017-04-12>$GPRMC,114534.00,A,4335.5912,N,00126.5234,E,0.6,191.0,130417,,*31\r\n$TLBTI,11.9,V,61.9,F,*7C\r\n$SDDBT,4.0,f,1.2,M,0.6,F*07\r\n$GPRMC,114535.00,A,4335.5911,N,00126.5233,E,0.6,192.0,130417,,*37\r\n<DateTime/>
<DateTime12:29:22,2017-04-12>$TLBTI,11.9,V,61.9,F,*7C\r\n$SDDBT,4.6,f,1.4,M,0.7,F*06\r\n$GPRMC,114536.00,A,4335.5909,N,00126.5233,E,0.7,191.0,130417,,*3F\r\n<DateTime/>
<DateTime12:29:23,2017-04-12>$TLBTI,11.9,V,61.9,F,*7C\r\n$SDDBT,4.1,f,1.2,M,0.6,F*06\r\n$GPRMC,114537.00,A,4335.5907,N,00126.5233,E,0.7,191.0,130417,,*30\r\n<DateTime/>
<DateTime12:29:24,2017-04-12>$TLBTI,11.9,V,61.9,F,*7C\r\n$SDDBT,2.1,f,0.6,M,0.3,F*00\r\n$GPRMC,114538.00,A,4335.5905,N,00126.5232,E,0.8,191.0,130417,,*33\r\n$TLBTI,11.9,V,61.9,F,*7C\r\n<DateTime/>
<DateTime12:29:25,2017-04-12>$SDDBT,4.4,f,1.3,M,0.7,F*03\r\n$GPRMC,114539.00,A,4335.5903,N,00126.5232,E,0.8,192.0,130417,,*37\r\n$TLBTI,11.9,V,61.9,F,*7C\r\n<DateTime/>
<DateTime12:29:26,2017-04-12>$SDDBT,4.5,f,1.3,M,0.7,F*02\r\n$GPRMC,114540.00,A,4335.5901,N,00126.5231,E,0.8,191.0,130417,,*3B\r\n$TLBTI,11.9,V,61.9,F,*7C\r\n<DateTime/>
<DateTime12:29:27,2017-04-12>$SDDBT,3.7,f,1.1,M,0.6,F*04\r\n$GPRMC,114541.00,A,4335.5899,N,00126.5231,E,0.8,191.0,130417,,*3A\r\n$TLBTI,11.9,V,61.9,F,*7C\r\n$SDDBT,2.1,f,0.6,M,0.3,F*00\r\n<DateTime/>
<DateTime12:29:28,2017-04-12>$GPRMC,114541.00,A,4335.5899,N,00126.5231,E,0.8,190.0,130417,,*3B\r\n$TLBTI,11.9,V,61.9,F,*7C\r\n$SDDBT,2.1,f,0.6,M,0.3,F*00\r\n<DateTime/>
<DateTime12:29:29,2017-04-12>$GPRMC,114542.00,A,4335.5898,N,00126.5230,E,0.7,189.0,130417,,*3F\r\n$TLBTI,11.9,V,61.9,F,*7C\r\n$SDDBT,4.7,f,1.4,M,0.7,F*07\r\n<DateTime/>
<DateTime12:29:30,2017-04-12>$GPRMC,114543.00,A,4335.5896,N,00126.5230,E,0.6,189.0,130417,,*31\r\n$TLBTI,11.9,V,61.9,F,*7C\r\n$SDDBT,2.1,f,0.6,M,0.3,F*00\r\n$GPRMC,114544.00,A,4335.5895,N,00126.5229,E,0.6,188.0,130417,,*3C\r\n<DateTime/>
<DateTime12:29:31,2017-04-12>$TLBTI,11.9,V,61.9,F,*7C\r\n$SDDBT,2.1,f,0.6,M,0.3,F*00\r\n$GPRMC,114545.00,A,4335.5893,N,00126.5227,E,0.6,188.0,130417,,*35\r\n<DateTime/>
<DateTime12:29:32,2017-04-12>$TLBTI,11.9,V,61.9,F,*7C\r\n$SDDBT,4.4,f,1.3,M,0.7,F*03\r\n$GPRMC,114546.00,A,4335.5891,N,00126.5226,E,0.7,189.0,130417,,*35\r\n<DateTime/>
<DateTime12:29:33,2017-04-12>$TLBTI,11.9,V,61.9,F,*7C\r\n$SDDBT,2.3,f,0.7,M,0.3,F*03\r\n$GPRMC,114547.00,A,4335.5889,N,00126.5225,E,0.7,190.0,130417,,*36\r\n$TLBTI,11.9,V,61.9,F,*7C\r\n<DateTime/>
<DateTime12:29:34,2017-04-12>$SDDBT,2.4,f,0.7,M,0.4,F*03\r\n$GPRMC,114548.00,A,4335.5887,N,00126.5224,E,0.7,191.0,130417,,*37\r\n$TLBTI,11.9,V,61.9,F,*7C\r\n<DateTime/>
<DateTime12:29:35,2017-04-12>$SDDBT,2.4,f,0.7,M,0.4,F*03\r\n$GPRMC,114549.00,A,4335.5885,N,00126.5223,E,0.7,192.0,130417,,*30\r\n$TLBTI,11.9,V,61.9,F,*7C\r\n<DateTime/>
<DateTime12:29:36,2017-04-12>$SDDBT,2.7,f,0.8,M,0.4,F*0F\r\n$GPRMC,114550.00,A,4335.5883,N,00126.5222,E,0.7,192.0,130417,,*3F\r\n$TLBTI,11.9,V,61.9,F,*7C\r\n$SDDBT,2.1,f,0.6,M,0.3,F*00\r\n<DateTime/>
<DateTime12:29:37,2017-04-12>$GPRMC,114551.00,A,4335.5881,N,00126.5222,E,0.7,192.0,130417,,*3C\r\n$TLBTI,11.9,V,61.9,F,*7C\r\n$SDDBT,3.4,f,1.0,M,0.5,F*05\r\n<DateTime/>
<DateTime12:29:38,2017-04-12>$GPRMC,114552.00,A,4335.5879,N,00126.5222,E,0.6,192.0,130417,,*39\r\n$TLBTI,11.9,V,61.9,F,*7C\r\n$SDDBT,2.3,f,0.7,M,0.3,F*03\r\n<DateTime/>
<DateTime12:29:39,2017-04-12>$GPRMC,114552.00,A,4335.5879,N,00126.5222,E,0.6,192.0,130417,,*39\r\n$TLBTI,11.9,V,61.9,F,*7C\r\n$SDDBT,2.8,f,0.8,M,0.4,F*00\r\n$GPRMC,114553.00,A,4335.5878,N,00126.5222,E,0.6,192.0,130417,,*39\r\n<DateTime/>
<DateTime12:29:40,2017-04-12>$TLBTI,11.9,V,61.9,F,*7C\r\n$SDDBT,2.1,f,0.6,M,0.3,F*00\r\n$GPRMC,114554.00,A,4335.5876,N,00126.5221,E,0.6,192.0,130417,,*33\r\n<DateTime/>
<DateTime12:29:41,2017-04-12>$TLBTI,11.9,V,61.9,F,*7C\r\n$SDDBT,3.3,f,1.0,M,0.5,F*02\r\n$GPRMC,114555.00,A,4335.5874,N,00126.5221,E,0.6,192.0,130417,,*30\r\n<DateTime/>
<DateTime12:29:42,2017-04-12>$TLBTI,11.9,V,61.9,F,*7C\r\n$SDDBT,2.1,f,0.6,M,0.3,F*00\r\n$GPRMC,114556.00,A,4335.5872,N,00126.5221,E,0.7,192.0,130417,,*34\r\n$TLBTI,11.9,V,61<DateTime/>
<DateTime12:29:43,2017-04-12>.9,F,*7C\r\n$SDDBT,2.7,f,0.8,M,0.4,F*0F\r\n$GPRMC,114557.00,A,4335.5870,N,00126.5220,E,0.8,193.0,130417,,*38\r\n$TLBTI,11.9,V,61.9,F,*7C\r\n<DateTime/>
<DateTime12:29:44,2017-04-12>$SDDBT,2.2,f,0.6,M,0.3,F*03\r\n$GPRMC,114558.00,A,4335.5868,N,00126.5220,E,0.8,193.0,130417,,*3E\r\n$TLBTI,11.9,V,61.9,F,*7C\r\n<DateTime/>
<DateTime12:29:45,2017-04-12>$SDDBT,2.9,f,0.9,M,0.4,F*00\r\n$GPRMC,114559.00,A,4335.5866,N,00126.5220,E,0.8,193.0,130417,,*31\r\n$TLBTI,11.9,V,61.9,F,*7C\r\n<DateTime/>
<DateTime12:29:46,2017-04-12>$SDDBT,2.4,f,0.7,M,0.4,F*03\r\n$GPRMC,114600.00,A,4335.5864,N,00126.5219,E,0.8,193.0,130417,,*36\r\n$TLBTI,11.9,V,61.9,F,*7C\r\n$SDDBT,2.2,f,0.6,M,0.3,F*03\r\n<DateTime/>
<DateTime12:29:47,2017-04-12>$GPRMC,114601.00,A,4335.5864,N,00126.5219,E,0.8,194.0,130417,,*30\r\n$TLBTI,11.9,V,61.9,F,*7C\r\n$SDDBT,2.1,f,0.6,M,0.3,F*00\r\n<DateTime/>
<DateTime12:29:48,2017-04-12>$GPRMC,114602.00,A,4335.5862,N,00126.5218,E,0.7,193.0,130417,,*3C\r\n$TLBTI,11.9,V,61.9,F,*7C\r\n$SDDBT,2.5,f,0.7,M,0.4,F*02\r\n<DateTime/>
<DateTime12:29:49,2017-04-12>$GPRMC,114602.00,A,4335.5860,N,00126.5218,E,0.7,193.0,130417,,*3E\r\n$TLBTI,11.9,V,61.9,F,*7C\r\n$SDDBT,2.2,f,0.6,M,0.3,F*03\r\n$GPRMC,114603.00,A,4335.5858,N,00126.5217,E,0.7,190.0,130417,,*38\r\n<DateTime/>
<DateTime12:29:50,2017-04-12>$TLBTI,11.9,V,61.9,F,*7C\r\n$SDDBT,2.3,f,0.7,M,0.3,F*03\r\n$GPRMC,114604.00,A,4335.5856,N,00126.5215,E,0.7,189.0,130417,,*3B\r\n<DateTime/>
<DateTime12:29:51,2017-04-12>$TLBTI,11.9,V,61.9,F,*7C\r\n$SDDBT,2.1,f,0.6,M,0.3,F*00\r\n$GPRMC,114605.00,A,4335.5854,N,00126.5215,E,0.7,189.0,130417,,*38\r\n<DateTime/>
<DateTime12:29:52,2017-04-12>$TLBTI,11.9,V,61.9,F,*7C\r\n$SDDBT,2.2,f,0.6,M,0.3,F*03\r\n$GPRMC,114606.00,A,4335.5851,N,00126.5214,E,0.7,188.0,130417,,*3E\r\n$TLBTI,11.9,V,61.9,F,*7C\r\n<DateTime/>
<DateTime12:29:53,2017-04-12>$SDDBT,2.2,f,0.6,M,0.3,F*03\r\n$GPRMC,114607.00,A,4335.5849,N,00126.5212,E,0.7,188.0,130417,,*30\r\n$TLBTI,11.9,V,61.9,F,*7C\r\n<DateTime/>
<DateTime12:29:54,2017-04-12>$SDDBT,2.1,f,0.6,M,0.3,F*00\r\n$GPRMC,114608.00,A,4335.5847,N,00126.5211,E,0.8,188.0,130417,,*3D\r\n$TLBTI,11.9,V,61.9,F,*7C\r\n<DateTime/>
<DateTime12:29:55,2017-04-12>$SDDBT,2.2,f,0.6,M,0.3,F*03\r\n$GPRMC,114609.00,A,4335.5845,N,00126.5210,E,0.7,187.0,130417,,*3F\r\n$TLBTI,11.9,V,61.9,F,*7C\r\n$SDDBT,2.1,f,0.6,M,0.3,F*00\r\n<DateTime/>
<DateTime12:29:56,2017-04-12>$GPRMC,114610.00,A,4335.5845,N,00126.5210,E,0.8,187.0,130417,,*38\r\n$TLBTI,11.9,V,61.9,F,*7C\r\n$SDDBT,2.2,f,0.6,M,0.3,F*03\r\n<DateTime/>
