<DateTime17:13:17,2017-04-26>$GPGGA,,,,,,0,0,,,M,,M,,*56\r\n<DateTime17:15:47,2017-04-26>\n$GPGGA,151547.00,4446.6758742,N,00038.9522516,W,1,4,1.5,45.610,M,47.572,M,,*72\r\n<DateTime/>
<DateTime17:15:48,2017-04-26>$GPGGA,151548.00,4446.6757598,N,00038.9523395,W,1,3,1.5,45.668,M,47.572,M,,*73\r\n<DateTime/>
<DateTime17:15:49,2017-04-26>$GPGGA,151549.00,4446.6757057,N,00038.9523547,W,1,3,1.5,45.708,M,47.572,M,,*7A\r\n<DateTime/>
<DateTime17:15:50,2017-04-26>$GPGGA,151550.00,4446.6757392,N,00038.9523433,W,1,3,1.5,45.682,M,47.572,M,,*79\r\n<DateTime/>
<DateTime17:15:51,2017-04-26>$GPGGA,151551.00,4446.6756854,N,00038.9523941,W,1,3,1.5,45.698,M,47.572,M,,*7B\r\n<DateTime/>
<DateTime17:15:52,2017-04-26>$GPGGA,151552.00,4446.6756319,N,00038.9524080,W,1,4,1.5,45.678,M,47.572,M,,*70\r\n<DateTime/>
<DateTime17:15:53,2017-04-26>$GPGGA,151553.00,4446.6757177,N,00038.9524573,W,1,3,1.5,45.615,M,47.572,M,,*7F\r\n<DateTime/>
<DateTime17:15:54,2017-04-26>$GPGGA,151554.00,4446.6757233,N,00038.9524466,W,1,3,1.5,45.621,M,47.572,M,,*79\r\n<DateTime/>
<DateTime17:15:55,2017-04-26>$GPGGA,151555.00,4446.6757206,N,00038.9524504,W,1,2,1.5,45.621,M,47.572,M,,*7A\r\n<DateTime/>
<DateTime17:15:56,2017-04-26>$GPGGA,151556.00,4446.6759180,N,00038.9524404,W,1,2,1.5,45.530,M,47.572,M,,*78\r\n<DateTime/>
<DateTime17:15:57,2017-04-26>$GPGGA,151557.00,4446.6760173,N,00038.9524470,W,1,3,1.5,45.480,M,47.572,M,,*77\r\n<DateTime/>
<DateTime17:15:58,2017-04-26>$GPGGA,151558.00,4446.6759278,N,00038.9524757,W,1,3,1.5,45.538,M,47.572,M,,*7E\r\n<DateTime/>
<DateTime17:15:59,2017-04-26>$GPGGA,151559.00,4446.6759154,N,00038.9525047,W,1,3,1.5,45.580,M,47.572,M,,*76\r\n<DateTime/>
<DateTime17:16:00,2017-04-26>$GPGGA,151600.00,4446.6760051,N,00038.9525653,W,1,0,1.5,45.599,M,47.572,M,,*7F\r\n<DateTime/>
<DateTime17:16:01,2017-04-26>$GPGGA,151601.00,4446.6759879,N,00038.9523591,W,1,5,1.5,45.678,M,47.572,M,,*74\r\n<DateTime/>
<DateTime17:16:02,2017-04-26>$GPGGA,151602.00,4446.6770667,N,00038.9524953,W,1,3,1.5,45.639,M,47.572,M,,*7B\r\n<DateTime/>
<DateTime17:16:03,2017-04-26>$GPGGA,151603.00,4446.6778586,N,00038.9526688,W,1,5,1.5,45.962,M,47.572,M,,*72\r\n<DateTime/>
<DateTime17:16:04,2017-04-26>$GPGGA,151604.00,4446.6777884,N,00038.9513133,W,1,7,1.5,46.184,M,47.572,M,,*75\r\n<DateTime/>
<DateTime17:16:05,2017-04-26>$GPGGA,151605.00,4446.6775461,N,00038.9501375,W,1,6,1.3,46.162,M,47.572,M,,*7D\r\n<DateTime/>
<DateTime17:16:06,2017-04-26>$GPGGA,151606.00,4446.6773841,N,00038.9493167,W,1,8,1.2,45.664,M,47.572,M,,*70\r\n<DateTime/>
<DateTime17:16:07,2017-04-26>$GPGGA,151607.00,4446.6773925,N,00038.9481658,W,1,8,1.0,45.328,M,47.572,M,,*75\r\n<DateTime/>
<DateTime17:16:08,2017-04-26>$GPGGA,151608.00,4446.6776857,N,00038.9469636,W,1,10,0.9,45.197,M,47.572,M,,*42\r\n<DateTime/>
<DateTime17:16:09,2017-04-26>$GPGGA,151609.00,4446.6778030,N,00038.9459149,W,1,9,0.9,44.890,M,47.572,M,,*7F\r\n<DateTime/>
<DateTime17:16:10,2017-04-26>$GPGGA,151610.00,4446.6778403,N,00038.9447628,W,1,9,0.9,44.753,M,47.572,M,,*7C\r\n<DateTime/>
<DateTime17:16:11,2017-04-26>$GPGGA,151611.00,4446.6779036,N,00038.9440577,W,1,6,0.9,44.462,M,47.572,M,,*7E\r\n<DateTime/>
<DateTime17:16:12,2017-04-26>$GPGGA,151612.00,4446.6779551,N,00038.9431504,W,1,5,0.9,44.121,M,47.572,M,,*7A\r\n<DateTime/>
<DateTime17:16:13,2017-04-26>$GPGGA,151613.00,4446.6780779,N,00038.9423830,W,1,3,0.9,44.022,M,47.572,M,,*78\r\n<DateTime/>
<DateTime17:16:14,2017-04-26>$GPGGA,151614.00,4446.6783817,N,00038.9417499,W,1,5,0.9,43.433,M,47.572,M,,*76\r\n<DateTime/>
<DateTime17:16:15,2017-04-26>$GPGGA,151615.00,4446.6786106,N,00038.9409082,W,1,6,0.9,43.170,M,47.572,M,,*7B\r\n<DateTime/>
<DateTime17:16:16,2017-04-26>$GPGGA,151616.00,4446.6788507,N,00038.9402693,W,1,6,1.0,42.710,M,47.572,M,,*77\r\n<DateTime/>
<DateTime17:16:17,2017-04-26>$GPGGA,151617.00,4446.6790260,N,00038.9397391,W,1,3,1.0,42.302,M,47.572,M,,*77\r\n<DateTime/>
<DateTime17:16:18,2017-04-26>$GPGGA,151618.00,4446.6792571,N,00038.9390863,W,1,4,1.0,42.042,M,47.572,M,,*7C\r\n<DateTime/>
<DateTime17:16:19,2017-04-26>$GPGGA,151619.00,4446.6794186,N,00038.9386258,W,1,4,1.0,41.706,M,47.572,M,,*76\r\n<DateTime/>
<DateTime17:16:20,2017-04-26>$GPGGA,151620.00,4446.6796439,N,00038.9383893,W,1,5,1.0,41.238,M,47.572,M,,*7E\r\n<DateTime/>
<DateTime17:16:21,2017-04-26>$GPGGA,151621.00,4446.6795078,N,00038.9379748,W,1,0,1.0,41.123,M,47.572,M,,*7D\r\n<DateTime/>
<DateTime17:16:22,2017-04-26>$GPGGA,151622.00,4446.6796573,N,00038.9380024,W,1,2,1.0,41.083,M,47.572,M,,*71\r\n<DateTime/>
<DateTime17:16:23,2017-04-26>$GPGGA,151623.00,4446.6798993,N,00038.9378035,W,1,1,1.0,40.923,M,47.572,M,,*7A\r\n<DateTime/>
<DateTime17:16:24,2017-04-26>$GPGGA,151624.00,4446.6799490,N,00038.9377657,W,1,1,1.0,40.886,M,47.572,M,,*71\r\n<DateTime/>
<DateTime17:16:25,2017-04-26>$GPGGA,151625.00,4446.6799064,N,00038.9378749,W,1,4,1.0,41.076,M,47.572,M,,*7D\r\n<DateTime/>
<DateTime17:16:26,2017-04-26>$GPGGA,151626.00,4446.6806268,N,00038.9366546,W,1,1,1.0,41.642,M,47.572,M,,*7F\r\n<DateTime/>
<DateTime17:16:27,2017-04-26>$GPGGA,151627.00,4446.6811791,N,00038.9353189,W,1,1,1.0,42.270,M,47.572,M,,*7C\r\n<DateTime/>
<DateTime17:16:28,2017-04-26>$GPGGA,151628.00,4446.6813350,N,00038.9342641,W,1,0,1.0,42.331,M,47.572,M,,*7E\r\n<DateTime/>
<DateTime17:16:29,2017-04-26>$GPGGA,151629.00,4446.6814223,N,00038.9335548,W,1,1,1.0,42.217,M,47.572,M,,*73\r\n<DateTime/>
<DateTime17:16:30,2017-04-26>$GPGGA,151630.00,4446.6814600,N,00038.9331442,W,1,1,1.0,41.835,M,47.572,M,,*78\r\n<DateTime/>
<DateTime17:16:31,2017-04-26>$GPGGA,151631.00,4446.6814056,N,00038.9325928,W,1,0,1.0,41.468,M,47.572,M,,*7D\r\n<DateTime/>
<DateTime17:16:32,2017-04-26>$GPGGA,151632.00,4446.6815916,N,00038.9322057,W,1,0,1.0,41.403,M,47.572,M,,*79\r\n<DateTime/>
<DateTime17:16:33,2017-04-26>$GPGGA,151633.00,4446.6811231,N,00038.9315626,W,1,2,1.0,41.608,M,47.572,M,,*7D\r\n<DateTime/>
<DateTime17:16:34,2017-04-26>$GPGGA,151634.00,4446.6806938,N,00038.9310548,W,1,2,1.0,41.025,M,47.572,M,,*79\r\n<DateTime/>
<DateTime17:16:35,2017-04-26>$GPGGA,151635.00,4446.6797484,N,00038.9305177,W,1,1,1.0,41.128,M,47.572,M,,*76\r\n<DateTime/>
<DateTime17:16:36,2017-04-26>$GPGGA,151636.00,4446.6790255,N,00038.9298587,W,1,2,1.0,40.974,M,47.572,M,,*75\r\n<DateTime/>
<DateTime17:16:37,2017-04-26>$GPGGA,151637.00,4446.6802470,N,00038.9270378,W,1,0,1.0,41.257,M,47.572,M,,*78\r\n<DateTime/>
<DateTime17:16:38,2017-04-26>$GPGGA,151638.00,4446.6802869,N,00038.9265584,W,1,1,1.3,41.212,M,47.572,M,,*71\r\n<DateTime/>
<DateTime17:16:39,2017-04-26>$GPGGA,151639.00,4446.6806230,N,00038.9247628,W,1,1,1.3,41.478,M,47.572,M,,*7D\r\n<DateTime/>
<DateTime17:16:40,2017-04-26>$GPGGA,151640.00,4446.6811579,N,00038.9227666,W,1,1,1.3,42.138,M,47.572,M,,*71\r\n<DateTime/>
<DateTime17:16:41,2017-04-26>$GPGGA,151641.00,4446.6815919,N,00038.9209238,W,1,3,1.4,42.673,M,47.572,M,,*70\r\n<DateTime/>
<DateTime17:16:42,2017-04-26>$GPGGA,151642.00,4446.6817877,N,00038.9196531,W,1,1,1.3,43.085,M,47.572,M,,*78\r\n<DateTime/>
<DateTime17:16:43,2017-04-26>$GPGGA,151643.00,4446.6811811,N,00038.9188882,W,1,1,1.3,42.849,M,47.572,M,,*7C\r\n<DateTime/>
<DateTime17:16:44,2017-04-26>$GPGGA,151644.00,4446.6809582,N,00038.9183608,W,1,0,1.3,42.616,M,47.572,M,,*77\r\n<DateTime/>
<DateTime17:16:45,2017-04-26>$GPGGA,151645.00,4446.6811020,N,00038.9177868,W,1,0,1.3,42.571,M,47.572,M,,*73\r\n<DateTime/>
<DateTime17:16:46,2017-04-26>$GPGGA,151646.00,4446.6809829,N,00038.9172292,W,1,0,1.3,42.495,M,47.572,M,,*79\r\n<DateTime/>
<DateTime17:16:47,2017-04-26>$GPGGA,151647.00,4446.6809561,N,00038.9166206,W,1,1,1.3,42.402,M,47.572,M,,*7E\r\n<DateTime/>
<DateTime17:16:48,2017-04-26>$GPGGA,151648.00,4446.6805296,N,00038.9159283,W,1,1,1.3,42.450,M,47.572,M,,*74\r\n<DateTime/>
<DateTime17:16:49,2017-04-26>$GPGGA,151649.00,4446.6805727,N,00038.9153066,W,1,1,1.3,42.288,M,47.572,M,,*7A\r\n<DateTime/>
<DateTime17:16:50,2017-04-26>$GPGGA,151650.00,4446.6806588,N,00038.9147961,W,1,0,1.3,42.196,M,47.572,M,,*70\r\n<DateTime/>
<DateTime17:16:51,2017-04-26>$GPGGA,151651.00,4446.6807894,N,00038.9143844,W,1,1,1.3,42.147,M,47.572,M,,*7F\r\n<DateTime/>
<DateTime17:16:52,2017-04-26>$GPGGA,151652.00,4446.6802879,N,00038.9139917,W,1,0,1.3,42.412,M,47.572,M,,*74\r\n<DateTime/>
<DateTime17:16:53,2017-04-26>$GPGGA,151653.00,4446.6804097,N,00038.9137414,W,1,0,1.3,42.252,M,47.572,M,,*79\r\n<DateTime/>
<DateTime17:16:54,2017-04-26>$GPGGA,151654.00,4446.6804258,N,00038.9132016,W,1,0,1.3,42.164,M,47.572,M,,*7A\r\n<DateTime/>
<DateTime17:16:55,2017-04-26>$GPGGA,151655.00,4446.6803307,N,00038.9125837,W,1,1,1.3,42.023,M,47.572,M,,*79\r\n<DateTime/>
<DateTime17:16:56,2017-04-26>$GPGGA,151656.00,4446.6802283,N,00038.9109752,W,1,0,1.3,41.618,M,47.572,M,,*78\r\n<DateTime/>
<DateTime17:16:57,2017-04-26>$GPGGA,151657.00,4446.6802143,N,00038.9104592,W,1,0,1.3,41.515,M,47.572,M,,*7B\r\n<DateTime/>
<DateTime17:16:58,2017-04-26>$GPGGA,151658.00,4446.6801106,N,00038.9100174,W,1,0,1.3,41.420,M,47.572,M,,*79\r\n<DateTime/>
<DateTime17:16:59,2017-04-26>$GPGGA,151659.00,4446.6801589,N,00038.9094886,W,1,0,1.3,41.339,M,47.572,M,,*7C\r\n<DateTime/>
<DateTime17:17:00,2017-04-26>$GPGGA,151700.00,4446.6802259,N,00038.9087549,W,1,1,1.3,41.198,M,47.572,M,,*7C\r\n<DateTime/>
<DateTime17:17:01,2017-04-26>$GPGGA,151701.00,4446.6799951,N,00038.9079103,W,1,1,1.3,40.871,M,47.572,M,,*77\r\n<DateTime/>
<DateTime17:17:02,2017-04-26>$GPGGA,151702.00,4446.6799165,N,00038.9069407,W,1,0,1.3,40.696,M,47.572,M,,*7D\r\n<DateTime/>
<DateTime17:17:03,2017-04-26>$GPGGA,151703.00,4446.6797678,N,00038.9040337,W,1,0,1.3,40.030,M,47.572,M,,*7C\r\n<DateTime/>
<DateTime17:17:04,2017-04-26>$GPGGA,151704.00,4446.6798583,N,00038.9032642,W,1,0,1.3,39.952,M,47.572,M,,*72\r\n<DateTime/>
<DateTime17:17:05,2017-04-26>$GPGGA,151705.00,4446.6799458,N,00038.9020513,W,1,1,1.3,39.592,M,47.572,M,,*70\r\n<DateTime/>
<DateTime17:17:06,2017-04-26>$GPGGA,151706.00,4446.6802297,N,00038.9015070,W,1,1,1.3,39.029,M,47.572,M,,*78\r\n<DateTime/>
<DateTime17:17:07,2017-04-26>$GPGGA,151707.00,4446.6800898,N,00038.8996129,W,1,3,1.3,38.319,M,47.572,M,,*73\r\n<DateTime/>
<DateTime17:17:08,2017-04-26>$GPGGA,151708.00,4446.6808083,N,00038.8990195,W,1,0,1.3,37.470,M,47.572,M,,*73\r\n<DateTime/>
<DateTime17:17:09,2017-04-26>$GPGGA,151709.00,4446.6809353,N,00038.8988898,W,1,1,1.3,37.522,M,47.572,M,,*77\r\n<DateTime/>
<DateTime17:17:10,2017-04-26>$GPGGA,151710.00,4446.6812253,N,00038.8989162,W,1,0,1.3,37.558,M,47.572,M,,*75\r\n<DateTime/>
<DateTime17:17:11,2017-04-26>$GPGGA,151711.00,4446.6815186,N,00038.8991087,W,1,0,1.3,37.635,M,47.572,M,,*73\r\n<DateTime/>
<DateTime17:17:12,2017-04-26>$GPGGA,151712.00,4446.6813878,N,00038.8987277,W,1,0,1.3,37.613,M,47.572,M,,*70\r\n<DateTime/>
<DateTime17:17:13,2017-04-26>$GPGGA,151713.00,4446.6814138,N,00038.8983060,W,1,0,1.3,37.582,M,47.572,M,,*70\r\n<DateTime/>
<DateTime17:17:14,2017-04-26>$GPGGA,151714.00,4446.6812966,N,00038.8979074,W,1,0,2.1,37.500,M,47.572,M,,*79\r\n<DateTime/>
<DateTime17:17:15,2017-04-26>$GPGGA,151715.00,4446.6811674,N,00038.8975427,W,1,0,2.1,37.422,M,47.572,M,,*78\r\n<DateTime/>
<DateTime17:17:16,2017-04-26>$GPGGA,151716.00,4446.6811204,N,00038.8973604,W,1,0,2.1,37.343,M,47.572,M,,*7D\r\n<DateTime/>
<DateTime17:17:17,2017-04-26>$GPGGA,151717.00,4446.6809865,N,00038.8973348,W,1,0,3.8,37.338,M,47.572,M,,*71\r\n<DateTime/>
<DateTime17:17:18,2017-04-26>$GPGGA,151718.00,4446.6805258,N,00038.8969566,W,1,0,3.8,37.312,M,47.572,M,,*7F\r\n<DateTime/>
<DateTime17:17:19,2017-04-26>$GPGGA,151719.00,4446.6805395,N,00038.8971671,W,1,0,4.4,37.356,M,47.572,M,,*79\r\n<DateTime/>
<DateTime17:17:20,2017-04-26>$GPGGA,151720.00,4446.6806551,N,00038.8969800,W,1,0,4.4,37.217,M,47.572,M,,*7B\r\n<DateTime/>
<DateTime17:17:21,2017-04-26>$GPGGA,151721.00,4446.6810719,N,00038.8969341,W,1,0,4.4,37.281,M,47.572,M,,*72\r\n<DateTime/>
<DateTime17:17:22,2017-04-26>$GPGGA,151722.00,4446.6813581,N,00038.8964497,W,1,0,13.9,37.131,M,47.572,M,,*43\r\n<DateTime/>
<DateTime17:17:23,2017-04-26>$GPGGA,151723.00,4446.6823046,N,00038.8957501,W,1,0,,37.071,M,47.572,M,,*51\r\n<DateTime/>
<DateTime17:17:24,2017-04-26>$GPGGA,151724.00,4446.6828721,N,00038.8946304,W,1,0,,37.085,M,47.572,M,,*53\r\n<DateTime/>
<DateTime17:17:25,2017-04-26>$GPGGA,151725.00,4446.6833226,N,00038.8935469,W,1,0,0.2,37.107,M,47.572,M,,*75\r\n<DateTime/>
<DateTime17:17:26,2017-04-26>$GPGGA,151726.00,4446.6838088,N,00038.8925587,W,1,0,,37.110,M,47.572,M,,*51\r\n<DateTime/>
<DateTime17:17:27,2017-04-26>$GPGGA,151727.00,,,,,0,1,,,M,,M,,*7E\r\n<DateTime/>
<DateTime17:17:28,2017-04-26>$GPGGA,151728.00,,,,,0,1,,,M,,M,,*71\r\n<DateTime/>
<DateTime17:17:29,2017-04-26>$GPGGA,151729.00,,,,,0,1,,,M,,M,,*70\r\n<DateTime/>
<DateTime17:17:30,2017-04-26>$GPGGA,151730.00,,,,,0,0,,,M,,M,,*79\r\n<DateTime/>
<DateTime17:17:31,2017-04-26>$GPGGA,151731.00,,,,,0,0,,,M,,M,,*78\r\n<DateTime/>
<DateTime17:17:32,2017-04-26>$GPGGA,151732.00,,,,,0,0,,,M,,M,,*7B\r\n<DateTime/>
<DateTime17:17:33,2017-04-26>$GPGGA,151733.00,,,,,0,0,,,M,,M,,*7A\r\n<DateTime/>
<DateTime17:17:34,2017-04-26>$GPGGA,151734.00,,,,,0,0,,,M,,M,,*7D\r\n<DateTime/>
<DateTime17:17:35,2017-04-26>$GPGGA,151735.00,,,,,0,0,,,M,,M,,*7C\r\n<DateTime/>
<DateTime17:17:36,2017-04-26>$GPGGA,151736.00,,,,,0,0,,,M,,M,,*7F\r\n<DateTime/>
<DateTime17:17:37,2017-04-26>$GPGGA,151737.00,,,,,0,0,,,M,,M,,*7E\r\n<DateTime/>
<DateTime17:17:38,2017-04-26>$GPGGA,151738.00,,,,,0,0,,,M,,M,,*71\r\n<DateTime/>
<DateTime17:17:39,2017-04-26>$GPGGA,151739.00,,,,,0,0,,,M,,M,,*70\r\n<DateTime/>
<DateTime17:17:40,2017-04-26>$GPGGA,151740.00,,,,,0,0,,,M,,M,,*7E\r\n<DateTime/>
<DateTime17:17:41,2017-04-26>$GPGGA,151741.00,,,,,0,0,,,M,,M,,*7F\r\n<DateTime/>
<DateTime17:17:42,2017-04-26>$GPGGA,151742.00,,,,,0,0,,,M,,M,,*7C\r\n<DateTime/>
<DateTime17:17:43,2017-04-26>$GPGGA,151743.00,,,,,0,0,,,M,,M,,*7D\r\n<DateTime/>
<DateTime17:17:44,2017-04-26>$GPGGA,151744.00,,,,,0,0,,,M,,M,,*7A\r\n<DateTime/>
<DateTime17:17:45,2017-04-26>$GPGGA,151745.00,,,,,0,0,,,M,,M,,*7B\r\n