<DateTime11:51:00,2017-04-12>\x00\n$SDDPT,,,*7B\r\n$SDMTW,30.30,C*34\r\n$SDDPT,,,*7B\r\n<DateTime/>
<DateTime11:51:01,2017-04-12>$SDMTW,30.34,C*30\r\n$SDDPT,,,*7B\r\n$SDM<DateTime/>
<DateTime11:51:02,2017-04-12>TW,30.33,C*37\r\n$SDDPT,,,*7B\r\n$SD<DateTime/>
<DateTime11:51:03,2017-04-12>MTW,30.30,C*34\r\n$SDDPT,,,*7B\r\n$SDM<DateTime/>
<DateTime11:51:04,2017-04-12>TW,30.31,C*35\r\n<DateTime11:51:31,2017-04-12>\x00\n$SDDPT,,,*7B\r\n$SDMTW,30.36,C*<DateTime/>
<DateTime11:51:32,2017-04-12>32\r\n$SDDPT,,,*7B\r\n$SD<DateTime/>
<DateTime11:51:33,2017-04-12>MTW,30.36,C*32\r\n$SDDPT,,,*7B\r\n$SD<DateTime/>
<DateTime11:51:34,2017-04-12>MTW,30.36,C*32\r\n$SDDPT,,,*7B\r\n$SDMTW,3<DateTime/>
<DateTime11:51:35,2017-04-12>0.36,C*32\r\n$SDDPT,,,*7B\r\n$SD<DateTime/>
<DateTime11:51:36,2017-04-12>MTW,30.36,C*32\r\n$SDDPT,,,*7B\r\n$SD<DateTime/>
<DateTime11:51:37,2017-04-12>MTW,30.36,C*32\r\n$SDDPT,,,*7B\r\n$SD<DateTime/>
<DateTime11:51:38,2017-04-12>MTW,30.36,C*32\r\n$SDDPT,,,*7B\r\n$SD<DateTime/>
<DateTime11:51:39,2017-04-12>MTW,30.36,C*32\r\n$SDDPT,,,*7B\r\n$SDM<DateTime/>
<DateTime11:51:40,2017-04-12>TW,30.35,C*31\r\n$SDDPT,,,*7B\r\n$SDM<DateTime/>
<DateTime11:51:41,2017-04-12>TW,30.36,C*32\r\n$SDDPT,,,*7B\r\n$SDMT<DateTime/>
<DateTime11:51:42,2017-04-12>W,30.36,C*32\r\n$SDDPT,,,*7B\r\n$SDMTW,30<DateTime/>
<DateTime11:51:43,2017-04-12>.34,C*30\r\n$SDDPT,,,*7B\r\n$SDM<DateTime/>
<DateTime11:51:44,2017-04-12>TW,30.36,C*32\r\n<DateTime11:32:34,2017-04-12>\x00<DateTime/>
<DateTime11:32:37,2017-04-12>\x00\x00\x00\x00\x00\x00\x00\x00\x00\x00\x00\x00\x00\x00\x00\x00\x00\x00\x00\x00\x00\x00\x00\x00\x00\x00\x00\x00\x00\x00\x00\x00\x00\x00\x00\x00\x00\x00\x00\x00\x00\x00\x00\x00\x00\x00\x00\x00\x00\x00\x00\x00\x00\x00\x00\x00\x00\x00\x00\x00\x00\x00\x00\x00\x00\x00\x00\x00\x00\x00\x00\x00\x00\x00\x00\x00\x00\x00\x00\x00\x00\x00\x00\x00\x00\x00\x00\x00\x00\x00\x00\x00\x00\x00\x00\x00\x00\x00\x00\x00\x00\x00\x00\x00\x00\x00\x00\x00\x00\x00\x00\x00\x00\x00\x00\x00\x00\x00\x00\x00\x00\x00\x00\x00\x00\x00\x00\x00\x00\x00\x00\x00\x00\x00\x00\x00\x00\x00\x00\x00\x00\x00\x00\x00\x00\x00\x00\x00\x00\x00\x00\x00\x00\x00\x00\x00\x00\x00\x00\x00\x00\x00\x00\x00\x00\x00\x00\x00\x00\x00\x00\x00\x00\x00\x00\x00\x00\x00\x00\x00\x00\x00\x00\x00\x00\x00\x00\x00\x00\x00\x00\x00\x00\x00\x00\x00\x00\x00\x00\x00\x00\x00\x00\x00\x00\x00\x00\x00\x00\x00\x00\x00\x00\x00\x00\x00\x00\x00\x00\x00\x00\x00\x00\x00\x00\x00\x00\x00\x00\x00\x00\x00\x00\x00\x00\x00\x00\x00\x00\x00\x00\x00\x00\x00\x00\x00\x00\x00\x00\x00\x00\x00\x00\x00\x00\x00\x00\x00\x00\x00\x00\x00\x00\x00\x00\x00\x00\x00\x00\x00\x00\x00\x00\x00\x00\x00\x00\x00\x00\x00\x00\x00\x00\x00\x00\x00\x00\x00\x00\x00\x00\x00\x00\x00\x00\x00\x00\x00\x00\x00\x00\x00\x00\x00\x00\x00\x00\x00\x00\x00\x00\x00\x00\x00\x00\x00\x00\x00\x00\x00\x00\x00\x00\x00\x00\x00\x00\x00\x00\x00\x00\x00\x00\x00\x00\x00\x00\x00\x00\x00\x00\x00\x00\x00\x00\x00\x00\x00\x00\x00\x00\x00\x00\x00\x00\x00\x00\x00\x00\x00\x00\x00\x00\x00\x00\x00\x00\x00\x00\x00\x00\x00\x00\x00\x00\x00\x00\x00\x00\x00\x00\x00\x00\x00\x00\x00\x00\x00\x00\x00\x00\x00\x00\x00\x00\x00\x00\x00\x00\x00\x00\x00\x00\x00\x00\x00\x00\x00\x00\x00\x00\x00\x00\x00\x00\x00\x00\x00\x00\x00\x00\x00\x00\x00\x00\x00\x00\x00\x00\x00\x00\x00\x00\x00\x00\x00\x00\x00\x00\x00\x00\x00\x00\x00\x00\x00\x00\x00\x00\x00\x00\x00\x00\x00\x00\x00\x00\x00\x00\x00\x00\x00\x00\x00\x00\x00\x00\x00\x00\x00\x00\x00\x00\x00\x00\x00\x00\x00\x00\x00\x00\x00\x00\x00\x00\x00\x00\x00\x00\x00\x00\x00\x00\x00\x00\x00\x00\x00\x00\x00\x00\x00\x00\x00\x00\x00\x00\x00\x00\x00\x00\x00\x00\x00\x00\x00\x00\x00\x00\x00\x00\x00\x00\x00\x00\x00\x00\x00\x00\x00\x00\x00\x00\x00\x00\x00\x00\x00\x00\x00\x00\x00\x00\x00\x00\x00\x00\x00\x00\x00\x00\x00\x00\x00\x00\x00\x00\x00\x00\x00\x00\x00\x00\x00\x00\x00\x00\x00\x00\x00\x00\x00\x00\x00\x00\x00\x00\x00\x00\x00\x00\x00\x00\x00\x00\x00\x00\x00\x00\x00\x00\x00\x00\x00\x00\x00\x00\x00\x00\x00\x00\x00\x00\x00\x00\x00\x00\x00\x00\x00\x00\x00\x00\x00\x00\x00\x00\x00\x00\x00\x00\x00\x00\x00\x00\x00\x00\x00\x00\x00\x00\x00\x00\x00\x00\x00\x00\x00\x00\x00\x00\x00\x00\x00\x00\x00\x00\x00\x00\x00\x00\x00\x00\x00\x00\x00\x00\x00\x00\x00\x00\x00\x00\x00\x00\x00\x00\x00\x00\x00\x00\x00\x00\x00\x00\x00\x00\x00\x00\x00\x00\x00\x00\x00\x00\x00\x00\x00\x00\x00\x00\x00\x00\x00\x00\x00\x00\x00\x00\x00\x00\x00\x00\x00\x00\x00\x00\x00\x00\x00\x00\x00\x00\x00\x00\x00\x00\x00\x00\x00\x00\x00\x00\x00\x00\x00\x00\x00\x00\x00\x00\x00\x00\x00\x00\x00\x00\x00\x00\x00\x00\x00\x00\x00\x00\x00\x00\x00\x00\x00\x00\x00\x00\x00\x00\x00\x00\x00\x00\x00\x00\x00\x00\x00\x00\x00\x00\x00\x00\x00\x00\x00\x00\x00\x00\x00\x00\x00\x00\x00\x00\x00\x00\x00\x00\x00\x00\x00\x00\x00\x00\x00\x00\x00\x00\x00\x00\x00\x00\x00\x00\x00\x00\x00\x00\x00\x00\x00\x00\x00\x00\x00\x00\x00\x00\x00\x00\x00\x00\x00\x00\x00\x00\x00\x00\x00\x00\x00\x00\x00\x00\x00\x00\x00\x00\x00\x00\x00\x00\x00\x00\x00\x00\x00\x00\x00\x00\x00\x00\x00\x00\x00\x00\x00\x00\x00\x00\x00\x00\x00\x00\x00\x00\x00\x00\x00\x00\x00\x00\x00\x00\x00\x00\x00\x00\x00\x00\x00\x00\x00\x00\x00\x00\x00\x00\x00\x00\x00\x00\x00\x00\x00\x00\x00\x00\x00\x00\x00\x00\x00\x00\x00\x00\x00\x00\x00\x00\x00\x00\x00\x00\x00\x00\x00\x00\x00\x00\x00\x00\x00\x00\x00\x00\x00\x00\x00\x00\x00\x00\x00\x00\x00\x00\x00\x00\x00\x00\x00\x00\x00\x00\x00\x00\x00\x00\x00\x00\x00\x00\x00\x00\x00\x00\x00\x00\x00\x00\x00\x00\x00\x00\x00\x00\x00\x00\x00\x00\x00\x00\x00\x00\x00\x00\x00\x00\x00\x00\x00\x00\x00\x00\x00\x00\x00\x00\x00\x00\x00\x00\x00\x00\x00\x00\x00\x00\x00\x00\x00\x00\x00\x00\x00\x00\x00\x00\x00\x00\x00\x00\x00\x00\x00\x00\x00\x00\x00\x00\x00\x00\x00\x00\x00\x00\x00\x00\x00\x00\x00\x00\x00\x00\x00\x00\x00\x00\x00\x00\x00\x00\x00\x00\x00\x00\x00\x00\x00\x00\x00\x00\x00\x00\x00\x00\x00\x00\x00\x00\x00\x00\x00\x00\x00\x00\x00\x00\x00\x00\x00\x00\x00\x00\x00\x00\x00\x00\x00\x00\x00\x00\x00\x00\x00\x00\x00\x00\x00\x00\x00\x00\x00\x00\x00\x00\x00\x00\x00\x00\x00\x00\x00\x00\x00\x00\x00\x00\x00\x00\x00\x00\x00\x00\x00\x00\x00\x00\x00\x00\x00\x00\x00\x00\x00\x00\x00\x00\x00\x00\x00\x00\x00\x00\x00\x00\x00\x00\x00\x00\x00\x00\x00\x00\x00\x00\x00\x00\x00\x00\x00\x00\x00\x00\x00\x00\x00\x00\x00\x00\x00\x00\x00\x00\x00\x00\x00\x00\x00\x00\x00\x00\x00\x00\x00\x00\x00\x00\x00\x00\x00\x00\x00\x00\x00\x00\x00\x00\x00\x00\x00\x00\x00\x00\x00\x00\x00\x00\x00\x00\x00\x00\x00\x00\x00\x00\x00\x00\x00\x00\x00\x00\x00\x00\x00\x00\x00\x00\x00\x00\x00\x00\x00\x00\x00\x00\x00\x00\x00\x00\x00\x00\x00\x00\x00\x00\x00\x00\x00\x00\x00\x00\x00\x00\x00\x00\x00\x00\x00\x00\x00\x00\x00\x00\x00\x00\x00\x00\x00\x00\x00\x00\x00\x00\x00\x00\x00\x00\x00\x00\x00\x00\x00\x00\x00\x00\x00\x00\x00\x00\x00\x00\x00\x00\x00\x00\x00\x00\x00\x00\x00\x00\x00\x00\x00\x00\x00\x00\x00\x00\x00\x00\x00\x00\x00\x00\x00\x00\x00\x00\x00\x00\x00\x00\x00\x00\x00\x00\x00\x00\x00\x00\x00\x00\x00\x00\x00\x00\x00\x00\x00\x00\x00\x00\x00\x00\x00\x00\x00\x00\x00\x00\x00\x00\x00\x00\x00\x00\x00\x00\x00\x00\x00\x00\x00\x00\x00\x00\x00\x00\x00\x00\x00\x00\x00\x00\x00\x00\x00\x00\x00\x00\x00\x00\x00\x00\x00\x00\x00\x00\x00\x00\x00\x00\x00\x00\x00\x00\x00\x00\x00\x00\x00\x00\x00\x00\x00\x00\x00\x00\x00\x00\x00\x00\x00\x00\x00\x00\x00\x00\x00\x00\x00\x00\x00\x00\x00\x00\x00\x00\x00\x00\x00\x00\x00\x00\x00\x00\x00\x00\x00\x00\x00\x00\x00\x00\x00\x00\x00\x00\x00\x00\x00\x00\x00\x00\x00\x00\x00\x00\x00\x00\x00\x00\x00\x00\x00\x00\x00\x00\x00\x00\x00\x00\x00\x00\x00\x00\x00\x00\x00\x00\x00\x00\x00\x00\x00\x00\x00\x00\x00\x00\x00\x00\x00\x00\x00\x00\x00\x00\x00\x00\x00\x00\x00\x00\x00\x00\x00\x00\x00\x00\x00\x00\x00\x00\x00\x00\x00\x00\x00\x00\x00\x00\x00\x00\x00\x00\x00\x00\x00\x00\x00\x00\x00\x00\x00\x00\x00\x00\x00\x00\x00\x00\x00\x00\x00\x00\x00\x00\x00\x00\x00\x00\x00\x00\x00\x00\x00\x00\x00\x00\x00\x00\x00\x00\x00\x00\x00\x00\x00\x00\x00\x00\x00\x00\x00\x00\x00\x00\x00\x00\x00\x00\x00\x00\x00\x00\x00\x00\x00\x00\x00\x00\x00\x00\x00\x00\x00\x00\x00\x00\x00\x00\x00\x00\x00\x00\x00\x00\x00\x00\x00\x00\x00\x00\x00\x00\x00\x00\x00\x00\x00\x00\x00\x00\x00\x00\x00\x00\x00\x00\x00\x00\x00\x00\x00\x00\x00\x00\x00\x00\x00\x00\x00\x00\x00\x00\x00\x00\x00\x00\x00\x00\x00\x00\x00\x00\x00\x00\x00\x00\x00\x00\x00\x00\x00\x00\x00\x00\x00\x00\x00\x00\x00\x00\x00\x00\x00\x00\x00\x00\x00\x00\x00\x00\x00\x00\x00\x00\x00\x00\x00\x00\x00\x00\x00\x00\x00\x00\x00\x00\x00\x00\x00\x00\x00\x00\x00\x00\x00\x00\x00\x00\x00\x00\x00\x00\x00\x00\x00\x00\x00\x00\x00\x00\x00\x00\x00\x00\x00\x00\x00\x00\x00\x00\x00\x00\x00\x00\x00\x00\x00\x00\x00\x00\x00\x00\x00\x00\x00\x00\x00\x00\x00\x00\x00\x00\x00\x00\x00\x00\x00\x00\x00\x00\x00\x00\x00\x00\x00\x00\x00\x00\x00\x00\x00\x00\x00\x00\x00\x00\x00\x00\x00\x00\x00\x00\x00\x00\x00\x00\x00\x00\x00\x00\x00\x00\x00\x00\x00\x00\x00\x00\x00\x00\x00\x00\x00\x00\x00\x00\x00\x00\x00\x00\x00\x00\x00\x00\x00\x00\x00\x00\x00\x00\x00\x00\x00\x00\x00\x00\x00\x00\x00\x00\x00\x00\x00\x00\x00\x00\x00\x00\x00\x00\x00\x00\x00\x00\x00\x00\x00\x00\x00\x00\x00\x00\x00\x00\x00\x00\x00\x00\x00\x00\x00\x00\x00\x00\x00\x00\x00\x00\x00\x00\x00\x00\x00\x00\x00\x00\x00\x00\x00\x00\x00\x00\x00\x00\x00\x00\x00\x00\x00\x00\x00\x00\x00\x00\x00\x00\x00\x00\x00\x00\x00\x00\x00\x00\x00\x00\x00\x00\x00\x00\x00\x00\x00\x00\x00\x00\x00\x00\x00\x00\x00\x00\x00\x00\x00\x00\x00\x00\x00\x00\x00\x00\x00\x00\x00\x00\x00\x00\x00\x00\x00\x00\x00\x00\x00\x00\x00\x00\x00\x00\x00\x00\x00\x00\x00\x00\x00\x00\x00\x00\x00\x00\x00\x00\x00\x00\x00\x00\x00\x00\x00\x00\x00\x00\x00\x00\x00\x00\x00\x00\x00\x00\x00\x00\x00\x00\x00\x00\x00\x00\x00\x00\x00\x00\x00\x00\x00\x00\x00\x00\x00\x00\x00\x00\x00\x00\x00\x00\x00\x00\x00\x00\x00\x00\x00\x00\x00\x00\x00\x00\x00\x00\x00\x00\x00\x00\x00\x00\x00\x00\x00\x00\x00\x00\x00\x00\x00\x00\x00\x00\x00\x00\x00\x00\x00\x00\x00\x00\x00\x00\x00\x00\x00\x00\x00\x00\x00\x00\x00\x00\x00\x00\x00\x00\x00\x00\x00\x00\x00\x00\x00\x00\x00\x00\x00\x00\x00\x00\x00\x00\x00\x00\x00\x00\x00\x00\x00\x00\x00\x00\x00\x00\x00\x00\x00\x00\x00\x00\x00\x00\x00\x00\x00\x00\x00\x00\x00\x00\x00\x00\x00\x00\x00\x00\x00\x00\x00\x00\x00\x00\x00\x00\x00\x00\x00\x00\x00\x00\x00\x00\x00\x00\x00\x00\x00\x00\x00\x00\x00\x00\x00\x00\x00\x00\x00\x00\x00\x00\x00\x00\x00\x00\x00\x00\x00\x00\x00\x00\x00\x00\x00\x00\x00\x00\x00\x00\x00\x00\x00\x00\x00\x00\x00\x00\x00\x00\x00\x00\x00\x00\x00\x00\x00\x00\x00\x00\x00\x00\x00\x00\x00\x00\x00\x00\x00\x00\x00\x00\x00\x00\x00\x00\x00\x00\x00\x00\x00\x00\x00\x00\x00\x00\x00\x00\x00\x00\x00\x00\x00\x00\x00\x00\x00\x00\x00\x00\x00\x00\x00\x00\x00\x00\x00\x00\x00\x00\x00\x00\x00\x00\x00\x00\x00\x00\x00\x00\x00\x00\x00\x00\x00\x00\x00\x00\x00\x00\x00\x00\x00\x00\x00\x00\x00\x00\x00\x00\x00\x00\x00\x00\x00\x00\x00\x00\x00\x00\x00\x00\x00\x00\x00\x00\x00\x00\x00\x00\x00\x00\x00\x00\x00\x00\x00\x00\x00\x00\x00\x00\x00\x00\x00\x00\x00\x00\x00\x00\x00\x00\x00\x00\x00\x00\x00\x00\x00\x00\x00\x00\x00\x00\x00\x00\x00\x00\x00\x00\x00\x00\x00\x00\x00\x00\x00\x00\x00\x00\x00\x00\x00\x00\x00\x00\x00\x00\x00\x00\x00\x00\x00\x00\x00\x00\x00\x00\x00\x00\x00\x00\x00\x00\x00\x00\x00\x00\x00\x00\x00\x00\x00\x00\x00\x00\x00\x00\x00\x00\x00\x00\x00\x00\x00\x00\x00\x00\x00\x00\x00\x00\x00\x00\x00\x00\x00\x00\x00\x00\x00\x00\x00\x00\x00\x00\x00\x00\x00\x00\x00\x00\x00\x00\x00\x00\x00\x00\x00\x00\x00\x00\x00\x00\x00\x00\x00\x00\x00\x00\x00\x00\x00\x00\x00\x00\x00\x00\x00\x00\x00\x00\x00\x00\x00\x00\x00\x00\x00\x00\x00\x00\x00\x00\x00\x00\x00\x00\x00\x00\x00\x00\x00\x00\x00\x00\x00\x00\x00\x00\x00\x00\x00\x00\x00\x00\x00\x00\x00\x00\x00\x00\x00\x00\x00\x00\x00\x00\x00\x00\x00\x00\x00\x00\x00\x00\x00\x00\x00\x00\x00\x00\x00\x00\x00\x00\x00\x00\x00\x00\x00\x00\x00\x00\x00\x00\x00\x00\x00\x00\x00\x00\x00\x00\x00\x00\x00\x00\x00\x00\x00\x00\x00\x00\x00\x00\x00\x00\x00\x00\x00\x00\x00\x00\x00\x00\x00\x00\x00\x00\x00\x00\x00\x00\x00\x00\x00\x00\x00\x00\x00\x00\x00\x00\x00\x00\x00\x00\x00\x00\x00\x00\x00\x00\x00\x00\x00\x00\x00\x00\x00\x00\x00\x00\x00\x00\x00\x00\x00\x00\x00\x00\x00\x00\x00\x00\x00\x00\x00\x00\x00\x00\x00\x00\x00\x00\x00\x00\x00\x00\x00\x00\x00\x00\x00\x00\x00\x00\x00\x00\x00\x00\x00\x00\x00\x00\x00\x00\x00\x00\x00\x00\x00\x00\x00\x00\x00\x00\x00\x00\x00\x00\x00\x00\x00\x00\x00\x00\x00\x00\x00\x00\x00\x00\x00\x00\x00\x00\x00\x00\x00\x00\x00\x00\x00\x00\x00\x00\x00\x00\x00\x00\x00\x00\x00\x00\x00\x00\x00\x00\x00\x00\x00\x00\x00\x00\x00\x00\x00\x00\x00\x00\x00\x00\x00\x00\x00\x00\x00\x00\x00\x00\x00\x00\x00\x00\x00\x00\x00\x00\x00\x00\x00\x00\x00\x00\x00\x00\x00\x00\x00\x00\x00\x00\x00\x00\x00\x00\x00\x00\x00\x00\x00\x00\x00\x00\x00\x00\x00\x00\x00\x00\x00\x00\x00\x00\x00\x00\x00\x00\x00\x00\x00\x00\x00\x00\x00\x00\x00\x00\x00\x00\x00\x00\x00\x00\x00\x00\x00\x00\x00\x00\x00\x00\x00\x00\x00\x00\x00\x00\x00\x00\x00\x00\x00\x00\x00\x00\x00\x00\x00\x00\x00\x00\x00\x00\x00\x00\x00\x00\x00\x00\x00\x00\x00\x00\x00\x00\x00\x00\x00\x00\x00\x00\x00\x00\x00\x00\x00\x00\x00\x00\x00\x00\x00\x00\x00\x00\x00\x00\x00\x00\x00\x00\x00\x00\x00\x00\x00\x00\x00\x00\x00\x00\x00\x00\x00\x00\x00\x00\x00\x00\x00\x00\x00\x00\x00\x00\x00\x00\x00\x00\x00\x00\x00\x00\x00\x00\x00\x00\x00\x00\x00\x00\x00\x00\x00\x00\x00\x00\x00\x00\x00\x00\x00\x00\x00\x00\x00\x00\x00\x00\x00\x00\x00\x00\x00\x00\x00\x00\x00\x00\x00\x00\x00\x00\x00\x00\x00\x00\x00\x00\x00\x00\x00\x00\x00\x00\x00\x00\x00\x00\x00\x00\x00\x00\x00\x00\x00\x00\x00\x00\x00\x00\x00\x00\x00\x00\x00\x00\x00\x00\x00\x00\x00\x00\x00\x00\x00\x00\x00\x00\x00\x00\x00\x00\x00\x00\x00\x00\x00\x00\x00\x00\x00\x00\x00\x00\x00\x00\x00\x00\x00\x00\x00\x00\x00\x00\x00\x00\x00\x00\x00\x00\x00\x00\x00\x00\x00\x00\x00\x00\x00\x00\x00\x00\x00\x00\x00\x00\x00\x00\x00\x00\x00\x00\x00\x00\x00\x00\x00\x00\x00\x00\x00\x00\x00\x00\x00\x00\x00\x00\x00\x00\x00\x00\x00\x00\x00\x00\x00\x00\x00\x00\x00\x00\x00\x00\x00\x00\x00\x00\x00\x00\x00\x00\x00\x00\x00\x00\x00\x00\x00\x00\x00\x00\x00\x00\x00\x00\x00\x00\x00\x00\x00\x00\x00\x00\x00\x00\x00\x00\x00\x00\x00\x00\x00\x00\x00\x00\x00\x00\x00<DateTime/>
<DateTime11:32:46,2017-04-12>$SDDBT,4.6,f,1.4,M,0.7,F*06\r\n$GPRMC,130949.00,A,4446.5815,N,00039.6761,W,0.2,234.0,120417,,*26\r\n<DateTime/>
<DateTime11:32:47,2017-04-12>$TLBTI,12.4,V,67.9,F,*74\r\n$SDDBT,4.7,f,1.4,M,0.7,F*07\r\n$GPRMC,130950.00,A,4446.5814,N,00039.6762,W,0.3,224.0,120417,,*2C\r\n<DateTime/>
<DateTime11:32:48,2017-04-12>$TLBTI,12.4,V,67.9,F,*74\r\n$SDDBT,4.7,f,1.4,M,0.7,F*07\r\n$GPRMC,130951.00,A,4446.5813,N,00039.6763,W,0.4,213.0,120417,,*28\r\n<DateTime/>
<DateTime11:32:49,2017-04-12>$TLBTI,12.4,V,67.9,F,*74\r\n$SDDBT,5.8,f,1.7,M,0.9,F*04\r\n$GPRMC,130952.00,A,4446.5812,N,00039.6763,W,0.4,192.0,120417,,*20\r\n$TLBTI,12.4,V,67.9,F,*74\r\n<DateTime/>
<DateTime11:32:50,2017-04-12>$SDDBT,2.9,f,0.9,M,0.4,F*00\r\n$GPRMC,130953.00,A,4446.5811,N,00039.6763,W,0.4,178.0,120417,,*26\r\n$TLBTI,12.4,V,67.6,F,*7B\r\n<DateTime/>
<DateTime11:32:51,2017-04-12>$SDDBT,5.6,f,1.7,M,0.9,F*0A\r\n$GPRMC,130954.00,A,4446.5809,N,00039.6762,W,0.4,165.0,120417,,*25\r\n$TLBTI,12.4,V,67.6,F,*7B\r\n<DateTime/>
<DateTime11:32:52,2017-04-12>$SDDBT,4.5,f,1.3,M,0.7,F*02\r\n$GPRMC,130955.00,A,4446.5809,N,00039.6762,W,0.3,155.0,120417,,*20\r\n$TLBTI,12.4,V,67.5,F,*78\r\n$SDDBT,4.7,f,1.4,M,0.7,F*07\r\n<DateTime/>
<DateTime11:32:53,2017-04-12>$GPRMC,130956.00,A,4446.5808,N,00039.6761,W,0.3,135.0,120417,,*27\r\n$TLBTI,12.4,V,67.5,F,*78\r\n$SDDBT,4.2,f,1.2,M,0.7,F*04\r\n<DateTime/>
<DateTime11:32:54,2017-04-12>$GPRMC,130957.00,A,4446.5808,N,00039.6761,W,0.3,127.0,120417,,*25\r\n$TLBTI,12.4,V,67.4,F,*79\r\n$SDDBT,4.4,f,1.3,M,0.7,F*03\r\n<DateTime/>
<DateTime11:32:55,2017-04-12>$GPRMC,130958.00,A,4446.5808,N,00039.6759,W,0.5,116.0,120417,,*25\r\n$TLBTI,12.4,V,67.4,F,*79\r\n$SDDBT,4.7,f,1.4,M,0.7,F*07\r\n$GPRMC,130958.00,A,4446.5808,N,00039.6757,W,0.5,98.0,120417,,*1C\r\n<DateTime/>
<DateTime11:32:56,2017-04-12>$TLBTI,12.4,V,67.4,F,*79\r\n$SDDBT,3.5,f,1.0,M,0.5,F*04\r\n$GPRMC,130959.00,A,4446.5809,N,00039.6754,W,0.5,66.0,120417,,*1E\r\n<DateTime/>
<DateTime11:32:57,2017-04-12>$TLBTI,12.4,V,67.4,F,*79\r\n$SDDBT,3.4,f,1.0,M,0.5,F*05\r\n$GPRMC,131000.00,A,4446.5809,N,00039.6754,W,0.5,61.0,120417,,*1D\r\n<DateTime/>
<DateTime11:32:58,2017-04-12>$TLBTI,12.4,V,67.4,F,*79\r\n$SDDBT,4.3,f,1.3,M,0.7,F*04\r\n$GPRMC,131001.00,A,4446.5810,N,00039.6752,W,0.5,70.0,120417,,*12\r\n$TLBTI,12.4,V,67.4,F,*79\r\n<DateTime/>
<DateTime11:32:59,2017-04-12>$SDDBT,4.4,f,1.3,M,0.7,F*03\r\n$GPRMC,131002.00,A,4446.5810,N,00039.6751,W,0.4,85.0,120417,,*19\r\n$TLBTI,12.4,V,67.4,F,*79\r\n<DateTime/>
<DateTime11:33:00,2017-04-12>$SDDBT,4.7,f,1.4,M,0.7,F*07\r\n$GPRMC,131003.00,A,4446.5810,N,00039.6751,W,0.2,110.0,120417,,*23\r\n$TLBTI,12.4,V,67.4,F,*79\r\n<DateTime/>
<DateTime11:33:01,2017-04-12>$SDDBT,4.1,f,1.2,M,0.6,F*06\r\n$GPRMC,131004.00,A,4446.5809,N,00039.6751,W,0.1,136.0,120417,,*2B\r\n$TLBTI,12.4,V,67.4,F,*79\r\n$SDDBT,4.3,f,1.3,M,0.7,F*04\r\n<DateTime/>
<DateTime11:33:02,2017-04-12>$GPRMC,131004.00,A,4446.5809,N,00039.6751,W,0.1,143.0,120417,,*29\r\n$TLBTI,12.4,V,67.4,F,*79\r\n$SDDBT,4.3,f,1.3,M,0.7,F*04\r\n<DateTime/>
<DateTime11:33:03,2017-04-12>$GPRMC,131005.00,A,4446.5809,N,00039.6751,W,0.0,162.0,120417,,*2A\r\n$TLBTI,12.4,V,67.4,F,*79\r\n$SDDBT,4.3,f,1.3,M,0.7,F*04\r\n<DateTime/>
<DateTime11:33:04,2017-04-12>$GPRMC,131006.00,A,4446.5810,N,00039.6752,W,0.1,171.0,120417,,*21\r\n$TLBTI,12.4,V,67.4,F,*79\r\n$SDDBT,4.3,f,1.3,M,0.7,F*04\r\n$GPRMC,131007.00,A,4446.5811,N,00039.6753,W,0.3,175.0,120417,,*26<DateTime/>
<DateTime11:33:05,2017-04-12>\r\n$TLBTI,12.4,V,67.4,F,*79\r\n$SDDBT,4.5,f,1.3,M,0.7,F*02\r\n$GPRMC,131008.00,A,4446.5811,N,00039.6754,W,0.2,189.0,120417,,*2C\r\n<DateTime/>
<DateTime11:33:06,2017-04-12>$TLBTI,12.4,V,67.4,F,*79\r\n$SDDBT,6.0,f,1.8,M,1.0,F*08\r\n$GPRMC,131009.00,A,4446.5811,N,00039.6755,W,0.1,198.0,120417,,*2F\r\n<DateTime/>
<DateTime11:33:07,2017-04-12>$TLBTI,12.4,V,67.4,F,*79\r\n$SDDBT,6.0,f,1.8,M,1.0,F*08\r\n$GPRMC,131010.00,A,4446.5812,N,00039.6755,W,0.1,209.0,120417,,*2F\r\n<DateTime/>
<DateTime11:33:08,2017-04-12>$TLBTI,12.4,V,67.4,F,*79\r\n$SDDBT,3.8,f,1.1,M,0.6,F*0B\r\n$GPRMC,131011.00,A,4446.5813,N,00039.6755,W,0.1,215.0,120417,,*22\r\n$TLBTI,12.4,V,67.4,F,*79\r\n<DateTime/>
<DateTime11:33:09,2017-04-12>$SDDBT,4.6,f,1.4,M,0.7,F*06\r\n$GPRMC,131012.00,A,4446.5813,N,00039.6755,W,0.0,217.0,120417,,*22\r\n$TLBTI,12.4,V,67.4,F,*79\r\n<DateTime/>
<DateTime11:33:10,2017-04-12>$SDDBT,4.3,f,1.3,M,0.7,F*04\r\n$GPRMC,131012.00,A,4446.5813,N,00039.6755,W,0.0,217.0,120417,,*22\r\n$TLBTI,12.4,V,67.4,F,*79\r\n<DateTime/>
<DateTime11:33:11,2017-04-12>$SDDBT,4.7,f,1.4,M,0.7,F*07\r\n$GPRMC,131014.00,A,4446.5813,N,00039.6755,W,0.0,219.0,120417,,*2A\r\n$TLBTI,12.4,V,67.4,F,*79\r\n$SDDBT,5.7,f,1.7,M,0.9,F*0B\r\n<DateTime/>
<DateTime11:33:12,2017-04-12>$GPRMC,131015.00,A,4446.5813,N,00039.6756,W,0.0,219.0,120417,,*28\r\n$TLBTI,12.4,V,67.4,F,*79\r\n$SDDBT,4.1,f,1.2,M,0.6,F*06\r\n<DateTime/>
<DateTime11:33:13,2017-04-12>$GPRMC,131015.00,A,4446.5813,N,00039.6756,W,0.0,218.0,120417,,*29\r\n$TLBTI,12.4,V,67.4,F,*79\r\n$SDDBT,3.2,f,0.9,M,0.5,F*0B\r\n<DateTime/>
<DateTime11:33:14,2017-04-12>$GPRMC,131016.00,A,4446.5813,N,00039.6756,W,0.0,217.0,120417,,*25\r\n$TLBTI,12.5,V,67.4,F,*78\r\n$SDDBT,4.7,f,1.4,M,0.7,F*07\r\n$GPRMC,131017.00,A,4446.5813,N,00039.6756,W,0.0,216.0,120417,,*25\r\n<DateTime/>
<DateTime11:33:15,2017-04-12>$TLBTI,12.4,V,67.4,F,*79\r\n$SDDBT,4.7,f,1.4,M,0.7,F*07\r\n$GPRMC,131018.00,A,4446.5813,N,00039.6756,W,0.0,215.0,120417,,*29\r\n<DateTime/>
<DateTime11:33:16,2017-04-12>$TLBTI,12.4,V,67.4,F,*79\r\n$SDDBT,0.0,f,0.0,M,0.0,F*06\r\n$GPRMC,131019.00,A,4446.5813,N,00039.6757,W,0.0,215.0,120417,,*29\r\n<DateTime/>
<DateTime11:33:17,2017-04-12>$TLBTI,12.4,V,67.4,F,*79\r\n$SDDBT,4.5,f,1.3,M,0.7,F*02\r\n$GPRMC,131020.00,A,4446.5813,N,00039.6757,W,0.0,213.0,120417,,*25\r\n$TLBTI,12.4,V,67.4,F,*79\r\n<DateTime/>
<DateTime11:33:18,2017-04-12>$SDDBT,4.1,f,1.2,M,0.6,F*06\r\n$GPRMC,131021.00,A,4446.5813,N,00039.6757,W,0.0,212.0,120417,,*25\r\n$TLBTI,12.4,V,67.4,F,*79\r\n<DateTime/>
<DateTime11:33:19,2017-04-12>$SDDBT,4.6,f,1.4,M,0.7,F*06\r\n$GPRMC,131022.00,A,4446.5813,N,00039.6757,W,0.0,201.0,120417,,*24\r\n$TLBTI,12.4,V,67.4,F,*79\r\n<DateTime/>
<DateTime11:33:20,2017-04-12>$SDDBT,3.5,f,1.0,M,0.5,F*04\r\n$GPRMC,131023.00,A,4446.5813,N,00039.6756,W,0.0,193.0,120417,,*2C\r\n$TLBTI,12.4,V,67.4,F,*79\r\n$SDDBT,4.5,f,1.3,M,0.7,F*02\r\n<DateTime/>
<DateTime11:33:21,2017-04-12>$GPRMC,131024.00,A,4446.5813,N,00039.6755,W,0.1,188.0,120417,,*23\r\n$TLBTI,12.4,V,67.4,F,*79\r\n$SDDBT,4.5,f,1.3,M,0.7,F*02\r\n<DateTime/>
<DateTime11:33:22,2017-04-12>$GPRMC,131025.00,A,4446.5813,N,00039.6755,W,0.1,183.0,120417,,*29\r\n$TLBTI,12.4,V,67.4,F,*79\r\n$SDDBT,3.8,f,1.1,M,0.6,F*0B\r\n<DateTime/>
<DateTime11:33:23,2017-04-12>$GPRMC,131025.00,A,4446.5813,N,00039.6754,W,0.1,178.0,120417,,*2C\r\n$TLBTI,12.4,V,67.4,F,*79\r\n$SDDBT,4.2,f,1.2,M,0.7,F*04\r\n$GPRMC,131026.00,A,4446.5813,N,00039.6754,W,0.1,176.0,120417,,*21\r\n<DateTime/>
<DateTime11:33:24,2017-04-12>$TLBTI,12.4,V,67.4,F,*79\r\n$SDDBT,4.0,f,1.2,M,0.6,F*07\r\n$GPRMC,131027.00,A,4446.5813,N,00039.6753,W,0.1,159.0,120417,,*2A\r\n<DateTime/>
<DateTime11:33:25,2017-04-12>$TLBTI,12.4,V,67.4,F,*79\r\n$SDDBT,3.9,f,1.2,M,0.6,F*09\r\n$GPRMC,131028.00,A,4446.5813,N,00039.6753,W,0.0,151.0,120417,,*2C\r\n<DateTime/>
<DateTime11:33:26,2017-04-12>$TLBTI,12.4,V,67.4,F,*79\r\n$SDDBT,4.7,f,1.4,M,0.7,F*07\r\n$GPRMC,131029.00,A,4446.5813,N,00039.6752,W,0.1,146.0,120417,,*2B\r\n$TLBTI,12.4,V,67.4,F,*79\r\n<DateTime/>
<DateTime11:33:27,2017-04-12>$SDDBT,4.7,f,1.4,M,0.7,F*07\r\n$GPRMC,131030.00,A,4446.5814,N,00039.6751,W,0.1,145.0,120417,,*24\r\n$TLBTI,12.4,V,67.4,F,*79\r\n<DateTime/>
<DateTime11:33:28,2017-04-12>$SDDBT,4.7,f,1.4,M,0.7,F*07\r\n$GPRMC,131031.00,A,4446.5814,N,00039.6751,W,0.0,139.0,120417,,*2F\r\n$TLBTI,12.4,V,67.4,F,*79\r\n<DateTime/>
<DateTime11:33:29,2017-04-12>$SDDBT,4.5,f,1.3,M,0.7,F*02\r\n$GPRMC,131032.00,A,4446.5814,N,00039.6750,W,0.0,138.0,120417,,*2C\r\n$TLBTI,12.4,V,67.4,F,*79\r\n$SDDBT,4.2,f,1.2,M,0.7,F*04\r\n<DateTime/>
<DateTime11:33:30,2017-04-12>$GPRMC,131033.00,A,4446.5814,N,00039.6750,W,0.0,135.0,120417,,*20\r\n$TLBTI,12.4,V,67.4,F,*79\r\n$SDDBT,4.7,f,1.4,M,0.7,F*07\r\n<DateTime/>
<DateTime11:33:31,2017-04-12>$GPRMC,131034.00,A,4446.5814,N,00039.6750,W,0.0,134.0,120417,,*26\r\n$TLBTI,12.4,V,67.4,F,*79\r\n$SDDBT,4.0,f,1.2,M,0.6,F*07\r\n<DateTime/>
<DateTime11:33:32,2017-04-12>$GPRMC,131034.00,A,4446.5814,N,00039.6751,W,0.0,133.0,120417,,*20\r\n$TLBTI,12.4,V,67.4,F,*79\r\n$SDDBT,4.1,f,1.2,M,0.6,F*06\r\n$GPRMC,131035.00,A,4446.5814,N,00039.6751,W,0.0,131.0,120417,,*23\r\n<DateTime/>
<DateTime11:33:33,2017-04-12>$TLBTI,12.4,V,67.4,F,*79\r\n$SDDBT,4.6,f,1.4,M,0.7,F*06\r\n$GPRMC,131036.00,A,4446.5814,N,00039.6751,W,0.0,130.0,120417,,*21\r\n<DateTime/>
<DateTime11:33:34,2017-04-12>$TLBTI,12.4,V,67.4,F,*79\r\n$SDDBT,5.9,f,1.8,M,0.9,F*0A\r\n$GPRMC,131037.00,A,4446.5813,N,00039.6752,W,0.0,126.0,120417,,*23\r\n<DateTime/>
<DateTime11:33:35,2017-04-12>$TLBTI,12.4,V,67.4,F,*79\r\n$SDDBT,4.7,f,1.4,M,0.7,F*07\r\n$GPRMC,131038.00,A,4446.5813,N,00039.6753,W,0.0,126.0,120417,,*2D\r\n$T<DateTime/>
<DateTime11:33:36,2017-04-12>LBTI,12.4,V,67.4,F,*79\r\n$SDDBT,4.7,f,1.4,M,0.7,F*07\r\n$GPRMC,131039.00,A,4446.5813,N,00039.6753,W,0.0,122.0,120417,,*28\r\n$TLBTI,12.4,V,67.4,F,*79\r\n<DateTime/>
<DateTime11:33:37,2017-04-12>$SDDBT,4.7,f,1.4,M,0.7,F*07\r\n$GPRMC,131040.00,A,4446.5813,N,00039.6754,W,0.0,120.0,120417,,*23\r\n$TLBTI,12.4,V,67.4,F,*79\r\n<DateTime/>
<DateTime11:33:38,2017-04-12>$SDDBT,4.5,f,1.3,M,0.7,F*02\r\n$GPRMC,131041.00,A,4446.5813,N,00039.6754,W,0.0,119.0,120417,,*28\r\n$TLBTI,12.4,V,67.4,F,*79\r\n<DateTime/>
<DateTime11:33:39,2017-04-12>$SDDBT,4.1,f,1.2,M,0.6,F*06\r\n$GPRMC,131042.00,A,4446.5813,N,00039.6754,W,0.0,114.0,120417,,*26\r\n$TLBTI,12.4,V,67.4,F,*79\r\n$SDDBT,4.2,f,1.2,M,0.7,F*04\r\n<DateTime/>
<DateTime11:33:40,2017-04-12>$GPRMC,131043.00,A,4446.5813,N,00039.6754,W,0.0,111.0,120417,,*22\r\n$TLBTI,12.4,V,67.4,F,*79\r\n$SDDBT,4.6,f,1.4,M,0.7,F*06\r\n<DateTime/>
<DateTime11:33:41,2017-04-12>$GPRMC,131043.00,A,4446.5813,N,00039.6754,W,0.0,107.0,120417,,*25\r\n$TLBTI,12.4,V,67.4,F,*79\r\n$SDDBT,4.5,f,1.3,M,0.7,F*02\r\n<DateTime/>
<DateTime11:33:42,2017-04-12>$GPRMC,131044.00,A,4446.5813,N,00039.6754,W,0.0,102.0,120417,,*27\r\n$TLBTI,12.4,V,67.4,F,*79\r\n$SDDBT,4.6,f,1.4,M,0.7,F*06\r\n$GPRMC,131045.00,A,4446.5813,N,00039.6754,W,0.0,103.0,120417,,*27\r\n<DateTime/>
<DateTime11:33:43,2017-04-12>$TLBTI,12.4,V,67.4,F,*79\r\n$SDDBT,0.0,f,0.0,M,0.0,F*06\r\n$GPRMC,131046.00,A,4446.5813,N,00039.6754,W,0.0,96.0,120417,,*19\r\n<DateTime/>
<DateTime11:33:44,2017-04-12>$TLBTI,12.4,V,67.4,F,*79\r\n$SDDBT,4.5,f,1.3,M,0.7,F*02\r\n$GPRMC,131047.00,A,4446.5813,N,00039.6754,W,0.0,93.0,120417,,*1D\r\n<DateTime/>
<DateTime11:33:45,2017-04-12>$TLBTI,12.4,V,67.4,F,*79\r\n$SDDBT,4.1,f,1.2,M,0.6,F*06\r\n$GPRMC,131048.00,A,4446.5813,N,00039.6754,W,0.0,88.0,120417,,*18\r\n$TLBTI,12.4,V,67.4,F,*79\r\n<DateTime/>
<DateTime11:33:46,2017-04-12>$SDDBT,4.6,f,1.4,M,0.7,F*06\r\n$GPRMC,131049.00,A,4446.5813,N,00039.6754,W,0.0,85.0,120417,,*14\r\n$TLBTI,12.4,V,67.4,F,*79\r\n<DateTime/>
<DateTime11:33:47,2017-04-12>$SDDBT,4.3,f,1.3,M,0.7,F*04\r\n$GPRMC,131050.00,A,4446.5813,N,00039.6754,W,0.0,80.0,120417,,*19\r\n$TLBTI,12.4,V,67.4,F,*79\r\n<DateTime/>
<DateTime11:33:48,2017-04-12>$SDDBT,4.2,f,1.2,M,0.7,F*04\r\n$GPRMC,131051.00,A,4446.5813,N,00039.6754,W,0.0,79.0,120417,,*1E\r\n$TLBTI,12.4,V,67.4,F,*79\r\n$SDDBT,4.7,f,1.4,M,0.7,F*07\r\n<DateTime/>
<DateTime11:33:49,2017-04-12>$GPRMC,131052.00,A,4446.5813,N,00039.6754,W,0.0,74.0,120417,,*10\r\n$TLBTI,12.4,V,67.4,F,*79\r\n$SDDBT,4.7,f,1.4,M,0.7,F*07\r\n<DateTime/>
<DateTime11:33:50,2017-04-12>$GPRMC,131052.00,A,4446.5813,N,00039.6754,W,0.0,73.0,120417,,*17\r\n$TLBTI,12.4,V,67.4,F,*79\r\n$SDDBT,4.7,f,1.4,M,0.7,F*07\r\n<DateTime/>
<DateTime11:33:51,2017-04-12>$GPRMC,131053.00,A,4446.5813,N,00039.6755,W,0.0,66.0,120417,,*13\r\n$TLBTI,12.4,V,67.4,F,*79\r\n$SDDBT,0.0,f,0.0,M,0.0,F*06\r\n$GPRMC,131054.00,A,4446.5813,N,00039.6755,W,0.0,62.0,120417,,*10\r\n<DateTime/>
<DateTime11:33:52,2017-04-12>$TLBTI,12.4,V,67.4,F,*79\r\n$SDDBT,3.5,f,1.0,M,0.5,F*04\r\n$GPRMC,131055.00,A,4446.5813,N,00039.6754,W,0.0,55.0,120417,,*14\r\n<DateTime/>
<DateTime11:33:53,2017-04-12>$TLBTI,12.4,V,67.4,F,*79\r\n$SDDBT,3.6,f,1.1,M,0.6,F*05\r\n$GPRMC,131056.00,A,4446.5813,N,00039.6754,W,0.0,52.0,120417,,*10\r\n<DateTime/>
<DateTime11:33:54,2017-04-12>$TLBTI,12.4,V,67.4,F,*79\r\n$SDDBT,0.0,f,0.0,M,0.0,F*06\r\n$GPRMC,131057.00,A,4446.5813,N,00039.6754,W,0.0,50.0,120417,,*13\r\n$TLBTI,12.4,V,67.4,F,*79\r\n<DateTime/>
<DateTime11:33:55,2017-04-12>$SDDBT,4.6,f,1.4,M,0.7,F*06\r\n$GPRMC,131058.00,A,4446.5813,N,00039.6753,W,0.0,46.0,120417,,*1C\r\n$TLBTI,12.4,V,67.4,F,*79\r\n<DateTime/>
<DateTime11:33:56,2017-04-12>$SDDBT,4.7,f,1.4,M,0.7,F*07\r\n$GPRMC,131059.00,A,4446.5813,N,00039.6753,W,0.0,42.0,120417,,*19\r\n$TLBTI,12.4,V,67.4,F,*79\r\n<DateTime/>
<DateTime11:33:57,2017-04-12>$SDDBT,4.7,f,1.4,M,0.7,F*07\r\n$GPRMC,131100.00,A,4446.5813,N,00039.6753,W,0.0,38.0,120417,,*19\r\n$TLBTI,12.4,V,67.4,F,*79\r\n$SDDBT,4.7,f,1.4,M,0.7,F*07\r\n<DateTime/>
<DateTime11:33:58,2017-04-12>$GPRMC,131101.00,A,4446.5813,N,00039.6752,W,0.0,36.0,120417,,*17\r\n$TLBTI,12.4,V,67.4,F,*79\r\n$SDDBT,4.3,f,1.3,M,0.7,F*04\r\n<DateTime/>
<DateTime11:33:59,2017-04-12>$GPRMC,131102.00,A,4446.5813,N,00039.6752,W,0.0,32.0,120417,,*10\r\n$TLBTI,12.4,V,67.4,F,*79\r\n$SDDBT,3.8,f,1.1,M,0.6,F*0B\r\n<DateTime/>
<DateTime11:34:00,2017-04-12>$GPRMC,131103.00,A,4446.5814,N,00039.6752,W,0.0,30.0,120417,,*14\r\n$TLBTI,12.4,V,67.4,F,*79\r\n$SDDBT,4.7,f,1.4,M,0.7,F*07\r\n$GPRMC,131103.00,A,4446.5814,N,00039.6752,W,0.0,25.0,120417,,*10\r\n<DateTime/>
<DateTime11:34:01,2017-04-12>$TLBTI,12.4,V,67.4,F,*79\r\n$SDDBT,4.7,f,1.4,M,0.7,F*07\r\n$GPRMC,131104.00,A,4446.5814,N,00039.6752,W,0.0,21.0,120417,,*13\r\n<DateTime/>
<DateTime11:34:02,2017-04-12>$TLBTI,12.4,V,67.4,F,*79\r\n$SDDBT,4.7,f,1.4,M,0.7,F*07\r\n$GPRMC,131105.00,A,4446.5814,N,00039.6752,W,0.0,56.0,120417,,*12\r\n<DateTime/>
<DateTime11:34:03,2017-04-12>$TLBTI,12.4,V,67.4,F,*79\r\n$SDDBT,0.0,f,0.0,M,0.0,F*06\r\n$GPRMC,131106.00,A,4446.5814,N,00039.6751,W,0.1,109.0,120417,,*28\r\n$TLBTI,12.4,V,67.4,F,*79\r\n<DateTime/>
<DateTime11:34:04,2017-04-12>$SDDBT,4.5,f,1.3,M,0.7,F*02\r\n$GPRMC,131107.00,A,4446.5813,N,00039.6750,W,0.1,129.0,120417,,*2D\r\n$TLBTI,12.4,V,67.4,F,*79\r\n<DateTime/>
<DateTime11:34:05,2017-04-12>$SDDBT,3.9,f,1.2,M,0.6,F*09\r\n$GPRMC,131108.00,A,4446.5813,N,00039.6750,W,0.1,141.0,120417,,*2C\r\n$TLBTI,12.4,V,67.4,F,*79\r\n<DateTime/>
<DateTime11:34:06,2017-04-12>$SDDBT,4.7,f,1.4,M,0.7,F*07\r\n$GPRMC,131109.00,A,4446.5812,N,00039.6750,W,0.0,137.0,120417,,*2C\r\n$TLBTI,12.4,V,67.4,F,*79\r\n$SDDBT,4.7,f<DateTime/>
<DateTime11:34:07,2017-04-12>,1.4,M,0.7,F*07\r\n$GPRMC,131110.00,A,4446.5812,N,00039.6750,W,0.1,140.0,120417,,*25\r\n$TLBTI,12.4,V,67.4,F,*79\r\n$SDDBT,4.7,f,1.4,M,0.7,F*07\r\n<DateTime/>
<DateTime11:34:08,2017-04-12>$GPRMC,131111.00,A,4446.5812,N,00039.6750,W,0.1,145.0,120417,,*21\r\n$TLBTI,12.4,V,67.4,F,*79\r\n$SDDBT,4.1,f,1.2,M,0.6,F*06\r\n<DateTime/>
<DateTime11:34:09,2017-04-12>$GPRMC,131112.00,A,4446.5813,N,00039.6751,W,0.1,150.0,120417,,*26\r\n$TLBTI,12.4,V,67.0,F,*7D\r\n$SDDBT,3.7,f,1.1,M,0.6,F*04\r\n<DateTime/>
<DateTime11:34:10,2017-04-12>$GPRMC,131112.00,A,4446.5813,N,00039.6752,W,0.1,155.0,120417,,*20\r\n$TLBTI,12.4,V,67.0,F,*7D\r\n$SDDBT,3.8,f,1.1,M,0.6,F*0B\r\n$GPRMC,131113.00,A,4446.5813,N,00039.6752,W,0.1,152.0,120417,,*26\r\n<DateTime/>
<DateTime11:34:11,2017-04-12>$TLBTI,12.4,V,66.8,F,*74\r\n$SDDBT,4.7,f,1.4,M,0.7,F*07\r\n$GPRMC,131114.00,A,4446.5814,N,00039.6751,W,0.2,179.0,120417,,*2F\r\n<DateTime/>
<DateTime11:34:12,2017-04-12>$TLBTI,12.4,V,66.8,F,*74\r\n$SDDBT,0.0,f,0.0,M,0.0,F*06\r\n$GPRMC,131115.00,A,4446.5815,N,00039.6750,W,0.3,171.0,120417,,*27\r\n<DateTime/>
<DateTime11:34:13,2017-04-12>$TLBTI,12.4,V,66.7,F,*7B\r\n$SDDBT,3.3,f,1.0,M,0.5,F*02\r\n$GPRMC,131116.00,A,4446.5818,N,00039.6749,W,0.7,228.0,120417,,*2A\r\n$TLBTI,12.4,V,66.7,F,*7B\r\n<DateTime/>
<DateTime11:34:14,2017-04-12>$SDDBT,0.0,f,0.0,M,0.0,F*06\r\n$GPRMC,131117.00,A,4446.5819,N,00039.6747,W,0.7,257.0,120417,,*2C\r\n$TLBTI,12.4,V,67.0,F,*7D\r\n<DateTime/>
<DateTime11:34:15,2017-04-12>$SDDBT,0.0,f,0.0,M,0.0,F*06\r\n$GPRMC,131118.00,A,4446.5819,N,00039.6747,W,0.4,256.0,120417,,*21\r\n$TLBTI,12.4,V,67.0,F,*7D\r\n<DateTime/>
<DateTime11:34:16,2017-04-12>$SDDBT,0.0,f,0.0,M,0.0,F*06\r\n$GPRMC,131119.00,A,4446.5819,N,00039.6748,W,0.1,256.0,120417,,*2A\r\n$TLBTI,12.4,V,67.0,F,*7D\r\n$SDDBT,0.0,f,0.0,M,0.0,F*06\r\n<DateTime/>
<DateTime11:34:17,2017-04-12>$GPRMC,131120.00,A,4446.5818,N,00039.6749,W,0.0,257.0,120417,,*20\r\n$TLBTI,12.4,V,67.2,F,*7F\r\n$SDDBT,0.0,f,0.0,M,0.0,F*06\r\n<DateTime/>
<DateTime11:34:18,2017-04-12>$GPRMC,131121.00,A,4446.5817,N,00039.6749,W,0.0,256.0,120417,,*2F\r\n$TLBTI,12.4,V,67.2,F,*7F\r\n$SDDBT,0.0,f,0.0,M,0.0,F*06\r\n<DateTime/>
<DateTime11:34:19,2017-04-12>$GPRMC,131121.00,A,4446.5817,N,00039.6750,W,0.0,256.0,120417,,*27\r\n$TLBTI,12.4,V,67.3,F,*7E\r\n$SDDBT,0.0,f,0.0,M,0.0,F*06\r\n$GPRMC,131122.00,A,4446.5817,N,00039.6751,W,0.0,256.0,120417,,*25\r\n<DateTime/>
<DateTime11:34:20,2017-04-12>$TLBTI,12.4,V,67.3,F,*7E\r\n$SDDBT,0.0,f,0.0,M,0.0,F*06\r\n$GPRMC,131123.00,A,4446.5816,N,00039.6752,W,0.0,256.0,120417,,*26\r\n<DateTime/>
<DateTime11:34:21,2017-04-12>$TLBTI,12.4,V,67.3,F,*7E\r\n$SDDBT,0.0,f,0.0,M,0.0,F*06\r\n$GPRMC,131124.00,A,4446.5816,N,00039.6752,W,0.0,256.0,120417,,*21\r\n<DateTime/>
<DateTime11:34:22,2017-04-12>$TLBTI,12.4,V,67.3,F,*7E\r\n$SDDBT,0.0,f,0.0,M,0.0,F*06\r\n$GPRMC,131124.00,A,4446.5816,N,00039.6752,W,0.0,256.0,120417,,*21\r\n$TLBTI,12.4,V,67.3,F,*7E\r\n<DateTime/>
<DateTime11:34:23,2017-04-12>$SDDBT,0.0,f,0.0,M,0.0,F*06\r\n$GPRMC,131124.00,A,4446.5816,N,00039.6752,W,0.0,256.0,120417,,*21\r\n$TLBTI,12.4,V,67.3,F,*7E\r\n<DateTime/>
<DateTime11:34:24,2017-04-12>$SDDBT,0.0,f,0.0,M,0.0,F*06\r\n$GPRMC,131127.00,A,4446.5816,N,00039.6753,W,0.0,256.0,120417,,*23\r\n$TLBTI,12.4,V,67.3,F,*7E\r\n<DateTime/>
<DateTime11:34:25,2017-04-12>$SDDBT,0.0,f,0.0,M,0.0,F*06\r\n$GPRMC,131128.00,A,4446.5816,N,00039.6754,W,0.0,256.0,120417,,*2B\r\n$TLBTI,12.4,V,67.3,F,*7E\r\n$SDDBT,0.0,f,0.0,M,0.0,F*06\r\n<DateTime/>
<DateTime11:34:26,2017-04-12>$GPRMC,131129.00,A,4446.5816,N,00039.6754,W,0.0,256.0,120417,,*2A\r\n$TLBTI,12.4,V,67.3,F,*7E\r\n$SDDBT,0.0,f,0.0,M,0.0,F*06\r\n<DateTime/>
<DateTime11:34:27,2017-04-12>$GPRMC,131129.00,A,4446.5816,N,00039.6754,W,0.0,256.0,120417,,*2A\r\n$TLBTI,12.4,V,67.3,F,*7E\r\n$SDDBT,0.0,f,0.0,M,0.0,F*06\r\n<DateTime/>
<DateTime11:34:28,2017-04-12>$GPRMC,131130.00,A,4446.5816,N,00039.6753,W,0.0,256.0,120417,,*25\r\n$TLBTI,12.4,V,67.3,F,*7E\r\n$SDDBT,0.0,f,0.0,M,0.0,F*06\r\n$GPRMC,131131.00,A,4446.5817,N,00039.6752,W,0.0,257.0,120417,,*25\r\n<DateTime/>
<DateTime11:34:29,2017-04-12>$TLBTI,12.4,V,67.3,F,*7E\r\n$SDDBT,0.0,f,0.0,M,0.0,F*06\r\n$GPRMC,131132.00,A,4446.5817,N,00039.6751,W,0.0,256.0,120417,,*24\r\n<DateTime/>
<DateTime11:34:30,2017-04-12>$TLBTI,12.4,V,67.3,F,*7E\r\n$SDDBT,0.0,f,0.0,M,0.0,F*06\r\n$GPRMC,131133.00,A,4446.5817,N,00039.6751,W,0.0,256.0,120417,,*25\r\n<DateTime/>
<DateTime11:34:31,2017-04-12>$TLBTI,12.4,V,67.3,F,*7E\r\n$SDDBT,0.0,f,0.0,M,0.0,F*06\r\n$GPRMC,131134.00,A,4446.5818,N,00039.6752,W,0.0,256.0,120417,,*2E\r\n$TLBTI,12.4,V,67.3,F,*7E\r\n<DateTime/>
<DateTime11:34:32,2017-04-12>$SDDBT,0.0,f,0.0,M,0.0,F*06\r\n$GPRMC,131134.00,A,4446.5818,N,00039.6752,W,0.0,256.0,120417,,*2E\r\n$TLBTI,12.4,V,67.3,F,*7E\r\n<DateTime/>
<DateTime11:34:33,2017-04-12>$SDDBT,0.0,f,0.0,M,0.0,F*06\r\n$GPRMC,131136.00,A,4446.5818,N,00039.6752,W,0.0,256.0,120417,,*2C\r\n$TLBTI,12.4,V,67.3,F,*7E\r\n<DateTime/>
<DateTime11:34:34,2017-04-12>$SDDBT,0.0,f,0.0,M,0.0,F*06\r\n$GPRMC,131137.00,A,4446.5818,N,00039.6752,W,0.0,256.0,120417,,*2D\r\n$TLBTI,12.4,V,67.3,F,*7E\r\n<DateTime/>
<DateTime11:34:35,2017-04-12>$SDDBT,0.0,f,0.0,M,0.0,F*06\r\n$GPRMC,131138.00,A,4446.5818,N,00039.6752,W,0.0,256.0,120417,,*22\r\n$TLBTI,12.4,V,67.3,F,*7E\r\n$SDDBT,0.0,f,0.0,M,0.0,F*06\r\n<DateTime/>
<DateTime11:34:36,2017-04-12>$GPRMC,131139.00,A,4446.5819,N,00039.6752,W,0.0,256.0,120417,,*22\r\n$TLBTI,12.4,V,67.3,F,*7E\r\n$SDDBT,0.0,f,0.0,M,0.0,F*06\r\n<DateTime/>
<DateTime11:34:37,2017-04-12>$GPRMC,131140.00,A,4446.5819,N,00039.6752,W,0.0,256.0,120417,,*2C\r\n$TLBTI,12.4,V,67.3,F,*7E\r\n$SDDBT,0.0,f,0.0,M,0.0,F*06\r\n<DateTime/>
<DateTime11:34:38,2017-04-12>$GPRMC,131140.00,A,4446.5819,N,00039.6752,W,0.0,256.0,120417,,*2C\r\n$TLBTI,12.4,V,67.3,F,*7E\r\n$SDDBT,0.0,f,0.0,M,0.0,F*06\r\n$GPRMC,131141.00,A,4446.5819,N,00039.6752,W,0.0,256.0,120417,,*2D\r\n<DateTime/>
<DateTime11:34:39,2017-04-12>$TLBTI,12.4,V,67.6,F,*7B\r\n$SDDBT,0.0,f,0.0,M,0.0,F*06\r\n$GPRMC,131141.00,A,4446.5819,N,00039.6752,W,0.0,256.0,120417,,*2D\r\n<DateTime/>
<DateTime11:34:40,2017-04-12>$TLBTI,12.4,V,67.6,F,*7B\r\n$SDDBT,0.0,f,0.0,M,0.0,F*06\r\n$GPRMC,131143.00,A,4446.5819,N,00039.6752,W,0.0,256.0,120417,,*2F\r\n<DateTime/>
<DateTime11:34:41,2017-04-12>$TLBTI,12.4,V,67.8,F,*75\r\n$SDDBT,0.0,f,0.0,M,0.0,F*06\r\n$GPRMC,131144.00,A,4446.5819,N,00039.6752,W,0.0,256.0,120417,,*28\r\n$TLBTI,12.4,V,67.9,F,*74\r\n<DateTime/>
<DateTime11:34:42,2017-04-12>$SDDBT,0.0,f,0.0,M,0.0,F*06\r\n$GPRMC,131145.00,A,4446.5820,N,00039.6751,W,0.0,257.0,120417,,*21\r\n$TLBTI,12.4,V,67.9,F,*74\r\n<DateTime/>
<DateTime11:34:43,2017-04-12>$SDDBT,0.0,f,0.0,M,0.0,F*06\r\n$GPRMC,131146.00,A,4446.5820,N,00039.6751,W,0.0,256.0,120417,,*23\r\n$TLBTI,12.4,V,67.9,F,*74\r\n<DateTime/>
<DateTime11:34:44,2017-04-12>$SDDBT,0.0,f,0.0,M,0.0,F*06\r\n$GPRMC,131146.00,A,4446.5820,N,00039.6751,W,0.0,256.0,120417,,*23\r\n$TLBTI,12.4,V,67.9,F,*74\r\n$SDDBT,0.0,f,0.0,M,0.0,F*06\r\n<DateTime/>
<DateTime11:34:45,2017-04-12>$GPRMC,131146.00,A,4446.5820,N,00039.6751,W,0.0,256.0,120417,,*23\r\n$TLBTI,12.4,V,67.9,F,*74\r\n$SDDBT,0.0,f,0.0,M,0.0,F*06\r\n<DateTime/>
<DateTime11:34:46,2017-04-12>$GPRMC,131148.00,A,4446.5821,N,00039.6751,W,0.0,256.0,120417,,*2C\r\n$TLBTI,12.4,V,67.9,F,*74\r\n$SDDBT,0.0,f,0.0,M,0.0,F*06\r\n<DateTime/>
<DateTime11:34:47,2017-04-12>$GPRMC,131149.00,A,4446.5821,N,00039.6751,W,0.0,256.0,120417,,*2D\r\n$TLBTI,12.4,V,67.9,F,*74\r\n$SDDBT,0.0,f,0.0,M,0.0,F*06\r\n$GPRMC,131149.00,A,4446.5821,N,00039.6751,W,0.0,256.0,120417,,*2D\r\n<DateTime/>
<DateTime11:34:48,2017-04-12>$TLBTI,12.4,V,67.9,F,*74\r\n$SDDBT,0.0,f,0.0,M,0.0,F*06\r\n$GPRMC,131149.00,A,4446.5821,N,00039.6751,W,0.0,256.0,120417,,*2D\r\n<DateTime/>
<DateTime11:34:49,2017-04-12>$TLBTI,12.4,V,67.9,F,*74\r\n$SDDBT,0.0,f,0.0,M,0.0,F*06\r\n$GPRMC,131152.00,A,4446.5823,N,00039.6752,W,0.0,256.0,120417,,*26\r\n<DateTime/>
<DateTime11:34:50,2017-04-12>$TLBTI,12.4,V,67.9,F,*74\r\n$SDDBT,0.0,f,0.0,M,0.0,F*06\r\n$GPRMC,131153.00,A,4446.5824,N,00039.6753,W,0.0,256.0,120417,,*21\r\n$TLBTI,12.4,V,67.9,F,*74\r\n<DateTime/>
<DateTime11:34:51,2017-04-12>$SDDBT,0.0,f,0.0,M,0.0,F*06\r\n$GPRMC,131154.00,A,4446.5824,N,00039.6753,W,0.0,256.0,120417,,*26\r\n$TLBTI,12.4,V,67.9,F,*74\r\n<DateTime/>
<DateTime11:34:52,2017-04-12>$SDDBT,0.0,f,0.0,M,0.0,F*06\r\n$GPRMC,131155.00,A,4446.5824,N,00039.6753,W,0.0,256.0,120417,,*27\r\n$TLBTI,12.4,V,67.9,F,*74\r\n<DateTime/>
<DateTime11:34:53,2017-04-12>$SDDBT,0.0,f,0.0,M,0.0,F*06\r\n$GPRMC,131156.00,A,4446.5824,N,00039.6753,W,0.0,256.0,120417,,*24\r\n$TLBTI,12.4,V,67.9,F,*74\r\n$SDDBT,0.0,f,0.0,M,0.0,F*06\r\n<DateTime/>
<DateTime11:34:54,2017-04-12>$GPRMC,131157.00,A,4446.5825,N,00039.6753,W,0.1,257.0,120417,,*24\r\n$TLBTI,12.4,V,67.9,F,*74\r\n$SDDBT,0.0,f,0.0,M,0.0,F*06\r\n<DateTime/>
<DateTime11:34:55,2017-04-12>$GPRMC,131158.00,A,4446.5825,N,00039.6753,W,0.0,256.0,120417,,*2B\r\n$TLBTI,12.4,V,67.9,F,*74\r\n$SDDBT,0.0,f,0.0,M,0.0,F*06\r\n<DateTime/>
<DateTime11:34:56,2017-04-12>$GPRMC,131158.00,A,4446.5825,N,00039.6754,W,0.0,256.0,120417,,*2C\r\n$TLBTI,12.4,V,67.9,F,*74\r\n$SDDBT,0.0,f,0.0,M,0.0,F*06\r\n$GPRMC,131159.00,A,4446.5825,N,00039.6754,W,0.0,256.0,120417,,*2D\r\n<DateTime/>
<DateTime11:34:57,2017-04-12>$TLBTI,12.4,V,67.9,F,*74\r\n$SDDBT,0.0,f,0.0,M,0.0,F*06\r\n$GPRMC,131200.00,A,4446.5825,N,00039.6754,W,0.0,256.0,120417,,*22\r\n<DateTime/>
<DateTime11:34:58,2017-04-12>$TLBTI,12.4,V,67.9,F,*74\r\n$SDDBT,0.0,f,0.0,M,0.0,F*06\r\n$GPRMC,131201.00,A,4446.5825,N,00039.6754,W,0.0,256.0,120417,,*23\r\n<DateTime/>
<DateTime11:34:59,2017-04-12>$TLBTI,12.4,V,67.9,F,*74\r\n$SDDBT,0.0,f,0.0,M,0.0,F*06\r\n$GPRMC,131202.00,A,4446.5825,N,00039.6753,W,0.0,257.0,120417,,*26\r\n$TLBTI,12.4,V,67.9,F,*74\r\n<DateTime/>
<DateTime11:35:00,2017-04-12>$SDDBT,0.0,f,0.0,M,0.0,F*06\r\n$GPRMC,131203.00,A,4446.5824,N,00039.6753,W,0.1,256.0,120417,,*26\r\n$TLBTI,12.4,V,67.9,F,*74\r\n<DateTime/>
<DateTime11:35:01,2017-04-12>$SDDBT,0.0,f,0.0,M,0.0,F*06\r\n$GPRMC,131204.00,A,4446.5824,N,00039.6753,W,0.1,256.0,120417,,*21\r\n$TLBTI,12.4,V,67.9,F,*74\r\n<DateTime/>
<DateTime11:35:02,2017-04-12>$SDDBT,0.0,f,0.0,M,0.0,F*06\r\n$GPRMC,131205.00,A,4446.5824,N,00039.6753,W,0.1,256.0,120417,,*20\r\n$TLBTI,12.4,V,67.9,F,*74\r\n$SDDBT,0.0,f,0.0,M,0.0,F*06\r\n<DateTime/>
<DateTime11:35:03,2017-04-12>$GPRMC,131206.00,A,4446.5824,N,00039.6753,W,0.0,256.0,120417,,*22\r\n$TLBTI,12.4,V,67.9,F,*74\r\n$SDDBT,0.0,f,0.0,M,0.0,F*06\r\n<DateTime/>
<DateTime11:35:04,2017-04-12>$GPRMC,131207.00,A,4446.5824,N,00039.6751,W,0.0,256.0,120417,,*21\r\n$TLBTI,12.4,V,67.9,F,*74\r\n$SDDBT,0.0,f,0.0,M,0.0,F*06\r\n<DateTime/>
<DateTime11:35:05,2017-04-12>$GPRMC,131207.00,A,4446.5824,N,00039.6752,W,0.0,256.0,120417,,*22\r\n$TLBTI,12.4,V,67.9,F,*74\r\n$SDDBT,0.0,f,0.0,M,0.0,F*06\r\n$GPRMC,131208.00,A,4446.5824,N,00039.6752,W,0.0,256.0,120417,,*2D\r\n<DateTime/>
<DateTime11:35:06,2017-04-12>$TLBTI,12.4,V,67.9,F,*74\r\n$SDDBT,0.0,f,0.0,M,0.0,F*06\r\n$GPRMC,131209.00,A,4446.5824,N,00039.6751,W,0.0,257.0,120417,,*2E\r\n<DateTime/>
<DateTime11:35:07,2017-04-12>$TLBTI,12.4,V,67.9,F,*74\r\n$SDDBT,0.0,f,0.0,M,0.0,F*06\r\n$GPRMC,131210.00,A,4446.5824,N,00039.6751,W,0.0,256.0,120417,,*27\r\n<DateTime/>
<DateTime11:35:08,2017-04-12>$TLBTI,12.4,V,67.9,F,*74\r\n$SDDBT,0.0,f,0.0,M,0.0,F*06\r\n$GPRMC,131211.00,A,4446.5824,N,00039.6752,W,0.0,256.0,120417,,*25\r\n<DateTime/>
<DateTime11:35:09,2017-04-12>$TLBTI,12.4,V,67.9,F,*74\r\n$SDDBT,0.0,f,0.0,M,0.0,F*06\r\n$GPRMC,131212.00,A,4446.5825,N,00039.6752,W,0.0,256.0,120417,,*27\r\n$TLBTI,12.4,V,67.9,F,*74\r\n<DateTime/>
<DateTime11:35:10,2017-04-12>$SDDBT,0.0,f,0.0,M,0.0,F*06\r\n$GPRMC,131213.00,A,4446.5825,N,00039.6752,W,0.0,256.0,120417,,*26\r\n$TLBTI,12.4,V,67.9,F,*74\r\n<DateTime/>
<DateTime11:35:11,2017-04-12>$SDDBT,0.0,f,0.0,M,0.0,F*06\r\n$GPRMC,131214.00,A,4446.5825,N,00039.6752,W,0.0,256.0,120417,,*21\r\n$TLBTI,12.4,V,67.9,F,*74\r\n<DateTime/>
<DateTime11:35:12,2017-04-12>$SDDBT,0.0,f,0.0,M,0.0,F*06\r\n$GPRMC,131215.00,A,4446.5825,N,00039.6751,W,0.0,256.0,120417,,*23\r\n$TLBTI,12.4,V,67.9,F,*74\r\n$SDDBT,0.0,f,0.0,M,0.0,F*06\r\n<DateTime/>
<DateTime11:35:13,2017-04-12>$GPRMC,131216.00,A,4446.5825,N,00039.6751,W,0.0,256.0,120417,,*20\r\n$TLBTI,12.4,V,67.9,F,*74\r\n$SDDBT,0.0,f,0.0,M,0.0,F*06\r\n<DateTime/>
<DateTime11:35:14,2017-04-12>$GPRMC,131216.00,A,4446.5825,N,00039.6751,W,0.0,257.0,120417,,*21\r\n$TLBTI,12.4,V,67.9,F,*74\r\n$SDDBT,0.0,f,0.0,M,0.0,F*06\r\n<DateTime/>
<DateTime11:35:15,2017-04-12>$GPRMC,131218.00,A,4446.5825,N,00039.6750,W,0.0,256.0,120417,,*2F\r\n$TLBTI,12.4,V,67.9,F,*74\r\n$SDDBT,0.0,f,0.0,M,0.0,F*06\r\n$GPRMC,131218.00,A,4446.5825,N,00039.6751,W,0.0,256.0,120417,,*2E\r\n<DateTime/>
<DateTime11:35:16,2017-04-12>$TLBTI,12.4,V,67.9,F,*74\r\n$SDDBT,0.0,f,0.0,M,0.0,F*06\r\n$GPRMC,131219.00,A,4446.5825,N,00039.6751,W,0.0,256.0,120417,,*2F\r\n<DateTime/>
<DateTime11:35:17,2017-04-12>$TLBTI,12.4,V,67.9,F,*74\r\n$SDDBT,0.0,f,0.0,M,0.0,F*06\r\n$GPRMC,131220.00,A,4446.5825,N,00039.6751,W,0.0,256.0,120417,,*25\r\n<DateTime/>
<DateTime11:35:18,2017-04-12>$TLBTI,12.4,V,67.9,F,*74\r\n$SDDBT,0.0,f,0.0,M,0.0,F*06\r\n$GPRMC,131221.00,A,4446.5825,N,00039.6752,W,0.0,256.0,120417,,*27\r\n$TLBTI,12.4,V,67.9,F,*74\r\n<DateTime/>
<DateTime11:35:19,2017-04-12>$SDDBT,0.0,f,0.0,M,0.0,F*06\r\n$GPRMC,131222.00,A,4446.5825,N,00039.6752,W,0.0,257.0,120417,,*25\r\n$TLBTI,12.4,V,67.9,F,*74\r\n<DateTime/>
<DateTime11:35:20,2017-04-12>$SDDBT,0.0,f,0.0,M,0.0,F*06\r\n$GPRMC,131223.00,A,4446.5825,N,00039.6752,W,0.0,256.0,120417,,*25\r\n$TLBTI,12.4,V,67.9,F,*74\r\n<DateTime/>
<DateTime11:35:21,2017-04-12>$SDDBT,0.0,f,0.0,M,0.0,F*06\r\n$GPRMC,131224.00,A,4446.5825,N,00039.6752,W,0.0,256.0,120417,,*22\r\n$TLBTI,12.4,V,67.9,F,*74\r\n$SDDBT,0.0,f,0.0,M,0.0,F*06\r\n<DateTime/>
<DateTime11:35:22,2017-04-12>$GPRMC,131225.00,A,4446.5825,N,00039.6752,W,0.0,256.0,120417,,*23\r\n$TLBTI,12.4,V,67.9,F,*74\r\n$SDDBT,0.0,f,0.0,M,0.0,F*06\r\n<DateTime/>
<DateTime11:35:23,2017-04-12>$GPRMC,131226.00,A,4446.5825,N,00039.6752,W,0.0,256.0,120417,,*20\r\n$TLBTI,12.4,V,67.9,F,*74\r\n$SDDBT,0.0,f,0.0,M,0.0,F*06\r\n<DateTime/>
<DateTime11:35:24,2017-04-12>$GPRMC,131227.00,A,4446.5825,N,00039.6752,W,0.0,256.0,120417,,*21\r\n$TLBTI,12.4,V,67.9,F,*74\r\n$SDDBT,0.0,f,0.0,M,0.0,F*06\r\n$GPRMC,131227.00,A,4446.5824,N,00039.6752,W,0.0,256.0,120417,,*20\r\n<DateTime/>
<DateTime11:35:25,2017-04-12>$TLBTI,12.4,V,67.9,F,*74\r\n$SDDBT,0.0,f,0.0,M,0.0,F*06\r\n$GPRMC,131228.00,A,4446.5824,N,00039.6752,W,0.0,256.0,120417,,*2F\r\n<DateTime/>
<DateTime11:35:26,2017-04-12>$TLBTI,12.5,V,67.9,F,*75\r\n$SDDBT,0.0,f,0.0,M,0.0,F*06\r\n$GPRMC,131229.00,A,4446.5824,N,00039.6752,W,0.0,256.0,120417,,*2E\r\n<DateTime/>
<DateTime11:35:27,2017-04-12>$TLBTI,12.4,V,67.9,F,*74\r\n$SDDBT,0.0,f,0.0,M,0.0,F*06\r\n$GPRMC,131230.00,A,4446.5824,N,00039.6752,W,0.0,256.0,120417,,*26\r\n$TLBTI,12.4,V,67.9,F,*74\r\n<DateTime/>
<DateTime11:35:28,2017-04-12>$SDDBT,0.0,f,0.0,M,0.0,F*06\r\n$GPRMC,131231.00,A,4446.5825,N,00039.6751,W,0.0,190.0,120417,,*2C\r\n$TLBTI,12.4,V,67.9,F,*74\r\n<DateTime/>
<DateTime11:35:29,2017-04-12>$SDDBT,0.0,f,0.0,M,0.0,F*06\r\n$GPRMC,131232.00,A,4446.5825,N,00039.6750,W,0.0,183.0,120417,,*2C\r\n$TLBTI,12.4,V,67.9,F,*74\r\n<DateTime/>
<DateTime11:35:30,2017-04-12>$SDDBT,0.0,f,0.0,M,0.0,F*06\r\n$GPRMC,131233.00,A,4446.5826,N,00039.6750,W,0.0,183.0,120417,,*2E\r\n$TLBTI,12.4,V,67.9,F,*74\r\n$SDDBT,0.0,f,0.0,M,0.0,F*06\r\n<DateTime/>
<DateTime11:35:31,2017-04-12>$GPRMC,131234.00,A,4446.5826,N,00039.6750,W,0.1,182.0,120417,,*29\r\n$TLBTI,12.4,V,67.9,F,*74\r\n$SDDBT,0.0,f,0.0,M,0.0,F*06\r\n<DateTime/>
<DateTime11:35:32,2017-04-12>$GPRMC,131235.00,A,4446.5825,N,00039.6750,W,0.0,182.0,120417,,*2A\r\n$TLBTI,12.4,V,67.9,F,*74\r\n$SDDBT,0.0,f,0.0,M,0.0,F*06\r\n<DateTime/>
<DateTime11:35:33,2017-04-12>$GPRMC,131236.00,A,4446.5825,N,00039.6749,W,0.1,174.0,120417,,*29\r\n$TLBTI,12.4,V,67.9,F,*74\r\n$SDDBT,0.0,f,0.0,M,0.0,F*06\r\n$GPRMC,131236.00,A,4446.5825,N,00039.6749,W,0.1,175.0,120417,,*28\r\n<DateTime/>
<DateTime11:35:34,2017-04-12>$TLBTI,12.4,V,67.9,F,*74\r\n$SDDBT,0.0,f,0.0,M,0.0,F*06\r\n$GPRMC,131237.00,A,4446.5825,N,00039.6750,W,0.1,175.0,120417,,*21\r\n<DateTime/>
<DateTime11:35:35,2017-04-12>$TLBTI,12.4,V,67.9,F,*74\r\n$SDDBT,0.0,f,0.0,M,0.0,F*06\r\n$GPRMC,131238.00,A,4446.5825,N,00039.6750,W,0.1,175.0,120417,,*2E\r\n<DateTime/>
<DateTime11:35:36,2017-04-12>$TLBTI,12.4,V,67.9,F,*74\r\n$SDDBT,0.0,f,0.0,M,0.0,F*06\r\n$GPRMC,131239.00,A,4446.5825,N,00039.6749,W,0.0,175.0,120417,,*26\r\n$TLBT<DateTime/>
<DateTime11:35:37,2017-04-12>I,12.4,V,67.9,F,*74\r\n$SDDBT,0.0,f,0.0,M,0.0,F*06\r\n$GPRMC,131240.00,A,4446.5825,N,00039.6749,W,0.0,175.0,120417,,*28\r\n$TLBTI,12.4,V,67.9,F,*74\r\n<DateTime/>
<DateTime11:35:38,2017-04-12>$SDDBT,0.0,f,0.0,M,0.0,F*06\r\n$GPRMC,131241.00,A,4446.5825,N,00039.6749,W,0.0,175.0,120417,,*29\r\n$TLBTI,12.4,V,67.9,F,*74\r\n<DateTime/>
<DateTime11:35:39,2017-04-12>$SDDBT,0.0,f,0.0,M,0.0,F*06\r\n$GPRMC,131242.00,A,4446.5824,N,00039.6750,W,0.0,175.0,120417,,*23\r\n$TLBTI,12.4,V,67.9,F,*74\r\n<DateTime/>
<DateTime11:35:40,2017-04-12>$SDDBT,0.0,f,0.0,M,0.0,F*06\r\n$GPRMC,131243.00,A,4446.5825,N,00039.6750,W,0.0,175.0,120417,,*23\r\n$TLBTI,12.4,V,67.9,F,*74\r\n$SDDBT,0.0,f,0.0,M,0.0,F*06\r\n<DateTime/>
<DateTime11:35:41,2017-04-12>$GPRMC,131244.00,A,4446.5824,N,00039.6750,W,0.0,175.0,120417,,*25\r\n$TLBTI,12.4,V,67.9,F,*74\r\n$SDDBT,0.0,f,0.0,M,0.0,F*06\r\n<DateTime/>
<DateTime11:35:42,2017-04-12>$GPRMC,131245.00,A,4446.5824,N,00039.6750,W,0.0,175.0,120417,,*24\r\n$TLBTI,12.4,V,67.9,F,*74\r\n$SDDBT,0.0,f,0.0,M,0.0,F*06\r\n<DateTime/>
<DateTime11:35:43,2017-04-12>$GPRMC,131245.00,A,4446.5824,N,00039.6750,W,0.0,175.0,120417,,*24\r\n$TLBTI,12.4,V,67.9,F,*74\r\n$SDDBT,0.0,f,0.0,M,0.0,F*06\r\n$GPRMC,131246.00,A,4446.5824,N,00039.6750,W,0.0,176.0,120417,,*24\r\n<DateTime/>
<DateTime11:35:44,2017-04-12>$TLBTI,12.4,V,67.9,F,*74\r\n$SDDBT,0.0,f,0.0,M,0.0,F*06\r\n$GPRMC,131247.00,A,4446.5824,N,00039.6750,W,0.0,175.0,120417,,*26\r\n<DateTime/>
<DateTime11:35:45,2017-04-12>$TLBTI,12.4,V,67.9,F,*74\r\n$SDDBT,0.0,f,0.0,M,0.0,F*06\r\n$GPRMC,131248.00,A,4446.5824,N,00039.6749,W,0.0,175.0,120417,,*21\r\n<DateTime/>
<DateTime11:35:46,2017-04-12>$TLBTI,12.4,V,67.9,F,*74\r\n$SDDBT,0.0,f,0.0,M,0.0,F*06\r\n$GPRMC,131249.00,A,4446.5824,N,00039.6748,W,0.0,175.0,120417,,*21\r\n$TLBTI,12.4,V,67.9,F,*74\r\n<DateTime/>
<DateTime11:35:47,2017-04-12>$SDDBT,0.0,f,0.0,M,0.0,F*06\r\n$GPRMC,131250.00,A,4446.5824,N,00039.6748,W,0.0,175.0,120417,,*29\r\n$TLBTI,12.4,V,67.9,F,*74\r\n<DateTime/>
<DateTime11:35:48,2017-04-12>$SDDBT,0.0,f,0.0,M,0.0,F*06\r\n$GPRMC,131251.00,A,4446.5823,N,00039.6747,W,0.0,175.0,120417,,*20\r\n$TLBTI,12.4,V,67.9,F,*74\r\n<DateTime/>
<DateTime11:35:49,2017-04-12>$SDDBT,0.0,f,0.0,M,0.0,F*06\r\n$GPRMC,131252.00,A,4446.5823,N,00039.6747,W,0.0,175.0,120417,,*23\r\n$TLBTI,12.4,V,67.9,F,*74\r\n$SDDBT,0.0,f,0.0,M,0.0,F*06\r\n<DateTime/>
<DateTime11:35:50,2017-04-12>$GPRMC,131253.00,A,4446.5823,N,00039.6747,W,0.0,176.0,120417,,*21\r\n$TLBTI,12.4,V,67.9,F,*74\r\n$SDDBT,0.0,f,0.0,M,0.0,F*06\r\n<DateTime/>
<DateTime11:35:51,2017-04-12>$GPRMC,131254.00,A,4446.5824,N,00039.6748,W,0.0,175.0,120417,,*2D\r\n$TLBTI,12.4,V,67.9,F,*74\r\n$SDDBT,0.0,f,0.0,M,0.0,F*06\r\n<DateTime/>
<DateTime11:35:52,2017-04-12>$GPRMC,131254.00,A,4446.5824,N,00039.6748,W,0.0,175.0,120417,,*2D\r\n$TLBTI,12.4,V,67.9,F,*74\r\n$SDDBT,0.0,f,0.0,M,0.0,F*06\r\n$GPRMC,131256.00,A,4446.5825,N,00039.6748,W,0.0,176.0,120417,,*2D\r\n<DateTime/>
<DateTime11:35:53,2017-04-12>$TLBTI,12.4,V,67.9,F,*74\r\n$SDDBT,0.0,f,0.0,M,0.0,F*06\r\n$GPRMC,131256.00,A,4446.5825,N,00039.6749,W,0.0,176.0,120417,,*2C\r\n<DateTime/>
<DateTime11:35:54,2017-04-12>$TLBTI,12.4,V,67.9,F,*74\r\n$SDDBT,0.0,f,0.0,M,0.0,F*06\r\n$GPRMC,131257.00,A,4446.5825,N,00039.6749,W,0.0,175.0,120417,,*2E\r\n<DateTime/>
<DateTime11:35:55,2017-04-12>$TLBTI,12.4,V,67.9,F,*74\r\n$SDDBT,0.0,f,0.0,M,0.0,F*06\r\n$GPRMC,131258.00,A,4446.5825,N,00039.6750,W,0.0,175.0,120417,,*29\r\n$TLBTI,12.4,V,67.9,F,*74\r\n<DateTime/>
<DateTime11:35:56,2017-04-12>$SDDBT,0.0,f,0.0,M,0.0,F*06\r\n$GPRMC,131259.00,A,4446.5825,N,00039.6751,W,0.0,175.0,120417,,*29\r\n$TLBTI,12.4,V,67.9,F,*74\r\n<DateTime/>
<DateTime11:35:57,2017-04-12>$SDDBT,0.0,f,0.0,M,0.0,F*06\r\n$GPRMC,131300.00,A,4446.5825,N,00039.6751,W,0.0,175.0,120417,,*24\r\n$TLBTI,12.4,V,67.9,F,*74\r\n<DateTime/>
<DateTime11:35:58,2017-04-12>$SDDBT,0.0,f,0.0,M,0.0,F*06\r\n$GPRMC,131301.00,A,4446.5825,N,00039.6751,W,0.0,175.0,120417,,*25\r\n$TLBTI,12.4,V,67.9,F,*74\r\n$SDDBT,0.0,f,0.0,M,0.0,F*06\r\n<DateTime/>
<DateTime11:35:59,2017-04-12>$GPRMC,131302.00,A,4446.5825,N,00039.6752,W,0.0,176.0,120417,,*26\r\n$TLBTI,12.4,V,67.9,F,*74\r\n$SDDBT,0.0,f,0.0,M,0.0,F*06\r\n<DateTime/>
<DateTime11:36:00,2017-04-12>$GPRMC,131303.00,A,4446.5825,N,00039.6753,W,0.0,176.0,120417,,*26\r\n$TLBTI,12.4,V,67.9,F,*74\r\n$SDDBT,0.0,f,0.0,M,0.0,F*06\r\n<DateTime/>
<DateTime11:36:01,2017-04-12>$GPRMC,131304.00,A,4446.5826,N,00039.6753,W,0.0,176.0,120417,,*22\r\n$TLBTI,12.4,V,67.9,F,*74\r\n$SDDBT,0.0,f,0.0,M,0.0,F*06\r\n$GPRMC,131305.00,A,4446.5825,N,00039.6753,W,0.0,178.0,120417,,*2E\r\n<DateTime/>
<DateTime11:36:02,2017-04-12>$TLBTI,12.4,V,67.9,F,*74\r\n$SDDBT,0.0,f,0.0,M,0.0,F*06\r\n$GPRMC,131305.00,A,4446.5825,N,00039.6753,W,0.0,194.0,120417,,*2C\r\n<DateTime/>
<DateTime11:36:03,2017-04-12>$TLBTI,12.4,V,67.9,F,*74\r\n$SDDBT,0.0,f,0.0,M,0.0,F*06\r\n$GPRMC,131306.00,A,4446.5824,N,00039.6753,W,0.0,9.0,120417,,*2B\r\n<DateTime/>
<DateTime11:36:04,2017-04-12>$TLBTI,12.4,V,67.9,F,*74\r\n$SDDBT,0.0,f,0.0,M,0.0,F*06\r\n$GPRMC,131307.00,A,4446.5824,N,00039.6753,W,0.0,327.0,120417,,*25\r\n$TLBTI,12.4,V,67.9,F,*74\r\n<DateTime/>
<DateTime11:36:05,2017-04-12>$SDDBT,0.0,f,0.0,M,0.0,F*06\r\n$GPRMC,131308.00,A,4446.5824,N,00039.6753,W,0.0,160.0,120417,,*2B\r\n$TLBTI,12.4,V,67.9,F,*74\r\n<DateTime/>
<DateTime11:36:06,2017-04-12>$SDDBT,0.0,f,0.0,M,0.0,F*06\r\n$GPRMC,131309.00,A,4446.5824,N,00039.6754,W,0.0,157.0,120417,,*29\r\n$TLBTI,12.4,V,67.9,F,*74\r\n<DateTime/>
<DateTime11:36:07,2017-04-12>$SDDBT,0.0,f,0.0,M,0.0,F*06\r\n$GPRMC,131310.00,A,4446.5824,N,00039.6754,W,0.0,164.0,120417,,*21\r\n$TLBTI,12.4,V,67.9,F,*74\r\n$SDDBT,0.0,f,0.0<DateTime/>
<DateTime11:36:08,2017-04-12>,M,0.0,F*06\r\n$GPRMC,131310.00,A,4446.5824,N,00039.6754,W,0.0,164.0,120417,,*21\r\n$TLBTI,12.4,V,67.9,F,*74\r\n$SDDBT,0.0,f,0.0,M,0.0,F*06\r\n<DateTime/>
<DateTime11:36:09,2017-04-12>$GPRMC,131312.00,A,4446.5824,N,00039.6755,W,0.1,166.0,120417,,*21\r\n$TLBTI,12.4,V,67.9,F,*74\r\n$SDDBT,0.0,f,0.0,M,0.0,F*06\r\n<DateTime/>
<DateTime11:36:10,2017-04-12>$GPRMC,131312.00,A,4446.5823,N,00039.6756,W,0.1,165.0,120417,,*26\r\n$TLBTI,12.4,V,67.9,F,*74\r\n$SDDBT,0.0,f,0.0,M,0.0,F*06\r\n<DateTime/>
<DateTime11:36:11,2017-04-12>$GPRMC,131313.00,A,4446.5823,N,00039.6756,W,0.0,166.0,120417,,*25\r\n$TLBTI,12.4,V,67.9,F,*74\r\n$SDDBT,0.0,f,0.0,M,0.0,F*06\r\n$GPRMC,131314.00,A,4446.5823,N,00039.6757,W,0.1,164.0,120417,,*20\r\n<DateTime/>
<DateTime11:36:12,2017-04-12>$TLBTI,12.4,V,67.9,F,*74\r\n$SDDBT,0.0,f,0.0,M,0.0,F*06\r\n$GPRMC,131315.00,A,4446.5823,N,00039.6758,W,0.1,166.0,120417,,*2C\r\n<DateTime/>
<DateTime11:36:13,2017-04-12>$TLBTI,12.4,V,67.9,F,*74\r\n$SDDBT,0.0,f,0.0,M,0.0,F*06\r\n$GPRMC,131316.00,A,4446.5823,N,00039.6758,W,0.0,169.0,120417,,*21\r\n<DateTime/>
<DateTime11:36:14,2017-04-12>$TLBTI,12.4,V,67.9,F,*74\r\n$SDDBT,0.0,f,0.0,M,0.0,F*06\r\n$GPRMC,131317.00,A,4446.5823,N,00039.6758,W,0.0,169.0,120417,,*20\r\n$TLBTI,12.4,V,67.9,F,*74\r\n<DateTime/>
<DateTime11:36:15,2017-04-12>$SDDBT,0.0,f,0.0,M,0.0,F*06\r\n$GPRMC,131318.00,A,4446.5822,N,00039.6758,W,0.0,168.0,120417,,*2F\r\n$TLBTI,12.4,V,67.9,F,*74\r\n<DateTime/>
<DateTime11:36:16,2017-04-12>$SDDBT,0.0,f,0.0,M,0.0,F*06\r\n$GPRMC,131319.00,A,4446.5821,N,00039.6758,W,0.0,167.0,120417,,*22\r\n$TLBTI,12.4,V,67.9,F,*74\r\n<DateTime/>
<DateTime11:36:17,2017-04-12>$SDDBT,0.0,f,0.0,M,0.0,F*06\r\n$GPRMC,131320.00,A,4446.5821,N,00039.6758,W,0.0,167.0,120417,,*28\r\n$TLBTI,12.4,V,67.9,F,*74\r\n$SDDBT,0.0,f,0.0,M,0.0,F*06\r\n<DateTime/>
<DateTime11:36:18,2017-04-12>$GPRMC,131321.00,A,4446.5821,N,00039.6759,W,0.0,167.0,120417,,*28\r\n$TLBTI,12.4,V,67.9,F,*74\r\n$SDDBT,0.0,f,0.0,M,0.0,F*06\r\n<DateTime/>
<DateTime11:36:19,2017-04-12>$GPRMC,131321.00,A,4446.5821,N,00039.6759,W,0.0,167.0,120417,,*28\r\n$TLBTI,12.4,V,67.9,F,*74\r\n$SDDBT,0.0,f,0.0,M,0.0,F*06\r\n<DateTime/>
<DateTime11:36:20,2017-04-12>$GPRMC,131322.00,A,4446.5821,N,00039.6760,W,0.0,167.0,120417,,*21\r\n$TLBTI,12.4,V,67.9,F,*74\r\n$SDDBT,0.0,f,0.0,M,0.0,F*06\r\n$GPRMC,131323.00,A,4446.5820,N,00039.6760,W,0.0,167.0,120417,,*21\r\n<DateTime/>
<DateTime11:36:21,2017-04-12>$TLBTI,12.4,V,67.9,F,*74\r\n$SDDBT,0.0,f,0.0,M,0.0,F*06\r\n$GPRMC,131324.00,A,4446.5820,N,00039.6760,W,0.0,167.0,120417,,*26\r\n<DateTime/>
<DateTime11:36:22,2017-04-12>$TLBTI,12.4,V,67.9,F,*74\r\n$SDDBT,0.0,f,0.0,M,0.0,F*06\r\n$GPRMC,131325.00,A,4446.5819,N,00039.6759,W,0.0,167.0,120417,,*27\r\n<DateTime/>
<DateTime11:36:23,2017-04-12>$TLBTI,12.4,V,67.9,F,*74\r\n$SDDBT,0.0,f,0.0,M,0.0,F*06\r\n$GPRMC,131326.00,A,4446.5819,N,00039.6759,W,0.0,167.0,120417,,*24\r\n$TLBTI,12.4,V,67.9,F,*74\r\n<DateTime/>
<DateTime11:36:24,2017-04-12>$SDDBT,0.0,f,0.0,M,0.0,F*06\r\n$GPRMC,131327.00,A,4446.5819,N,00039.6759,W,0.0,167.0,120417,,*25\r\n$TLBTI,12.4,V,67.9,F,*74\r\n<DateTime/>
<DateTime11:36:25,2017-04-12>$SDDBT,0.0,f,0.0,M,0.0,F*06\r\n$GPRMC,131328.00,A,4446.5819,N,00039.6760,W,0.0,167.0,120417,,*20\r\n$TLBTI,12.4,V,67.9,F,*74\r\n<DateTime/>
<DateTime11:36:26,2017-04-12>$SDDBT,0.0,f,0.0,M,0.0,F*06\r\n$GPRMC,131329.00,A,4446.5819,N,00039.6759,W,0.0,167.0,120417,,*2B\r\n$TLBTI,12.4,V,67.9,F,*74\r\n$SDDBT,0.0,f,0.0,M,0.0,F*06\r\n<DateTime/>
<DateTime11:36:27,2017-04-12>$GPRMC,131330.00,A,4446.5819,N,00039.6759,W,0.0,167.0,120417,,*23\r\n$TLBTI,12.4,V,67.9,F,*74\r\n$SDDBT,0.0,f,0.0,M,0.0,F*06\r\n<DateTime/>
<DateTime11:36:28,2017-04-12>$GPRMC,131330.00,A,4446.5819,N,00039.6759,W,0.0,167.0,120417,,*23\r\n$TLBTI,12.4,V,67.9,F,*74\r\n$SDDBT,0.0,f,0.0,M,0.0,F*06\r\n<DateTime/>
<DateTime11:36:29,2017-04-12>$GPRMC,131331.00,A,4446.5819,N,00039.6759,W,0.0,167.0,120417,,*22\r\n$TLBTI,12.4,V,67.9,F,*74\r\n$SDDBT,0.0,f,0.0,M,0.0,F*06\r\n$GPRMC,131332.00,A,4446.5819,N,00039.6759,W,0.0,167.0,120417,,*21\r\n<DateTime/>
<DateTime11:36:30,2017-04-12>$TLBTI,12.4,V,67.9,F,*74\r\n$SDDBT,0.0,f,0.0,M,0.0,F*06\r\n$GPRMC,131333.00,A,4446.5819,N,00039.6759,W,0.0,167.0,120417,,*20\r\n<DateTime/>
<DateTime11:36:31,2017-04-12>$TLBTI,12.4,V,67.9,F,*74\r\n$SDDBT,0.0,f,0.0,M,0.0,F*06\r\n$GPRMC,131334.00,A,4446.5819,N,00039.6759,W,0.0,167.0,120417,,*27\r\n<DateTime/>
<DateTime11:36:32,2017-04-12>$TLBTI,12.4,V,67.9,F,*74\r\n$SDDBT,0.0,f,0.0,M,0.0,F*06\r\n$GPRMC,131335.00,A,4446.5819,N,00039.6759,W,0.0,167.0,120417,,*26\r\n$TLBTI,12.4,V,67.9,F,*74\r\n<DateTime/>
<DateTime11:36:33,2017-04-12>$SDDBT,0.0,f,0.0,M,0.0,F*06\r\n$GPRMC,131336.00,A,4446.5819,N,00039.6759,W,0.0,167.0,120417,,*25\r\n$TLBTI,12.4,V,67.9,F,*74\r\n<DateTime/>
<DateTime11:36:34,2017-04-12>$SDDBT,0.0,f,0.0,M,0.0,F*06\r\n$GPRMC,131337.00,A,4446.5819,N,00039.6760,W,0.0,167.0,120417,,*2E\r\n$TLBTI,12.4,V,67.9,F,*74\r\n<DateTime/>
<DateTime11:36:35,2017-04-12>$SDDBT,0.0,f,0.0,M,0.0,F*06\r\n$GPRMC,131338.00,A,4446.5819,N,00039.6760,W,0.0,167.0,120417,,*21\r\n$TLBTI,12.4,V,67.9,F,*74\r\n$SDDBT,0.0,f,0.0,M,0.0,F*06\r\n<DateTime/>
<DateTime11:36:36,2017-04-12>$GPRMC,131339.00,A,4446.5820,N,00039.6761,W,0.0,167.0,120417,,*2B\r\n$TLBTI,12.4,V,67.9,F,*74\r\n$SDDBT,0.0,f,0.0,M,0.0,F*06\r\n<DateTime/>
<DateTime11:36:37,2017-04-12>$GPRMC,131340.00,A,4446.5820,N,00039.6761,W,0.0,167.0,120417,,*25\r\n$TLBTI,12.4,V,67.9,F,*74\r\n$SDDBT,0.0,f,0.0,M,0.0,F*06\r\n<DateTime/>
<DateTime11:36:38,2017-04-12>$GPRMC,131341.00,A,4446.5820,N,00039.6762,W,0.0,167.0,120417,,*27\r\n$TLBTI,12.4,V,67.9,F,*74\r\n$SDDBT,0.0,f,0.0,M,0.0,F*06\r\n<DateTime/>
<DateTime11:36:39,2017-04-12>$GPRMC,131342.00,A,4446.5820,N,00039.6762,W,0.0,167.0,120417,,*24\r\n$TLBTI,12.4,V,67.9,F,*74\r\n$SDDBT,0.0,f,0.0,M,0.0,F*06\r\n$GPRMC,131342.00,A,4446.5820,N,00039.6762,W,0.0,167.0,120417,,*24\r\n<DateTime/>
<DateTime11:36:40,2017-04-12>$TLBTI,12.4,V,67.9,F,*74\r\n$SDDBT,0.0,f,0.0,M,0.0,F*06\r\n$GPRMC,131343.00,A,4446.5820,N,00039.6762,W,0.0,167.0,120417,,*25\r\n<DateTime/>
<DateTime11:36:41,2017-04-12>$TLBTI,12.4,V,67.9,F,*74\r\n$SDDBT,0.0,f,0.0,M,0.0,F*06\r\n$GPRMC,131344.00,A,4446.5820,N,00039.6762,W,0.0,167.0,120417,,*22\r\n<DateTime/>
<DateTime11:36:42,2017-04-12>$TLBTI,12.4,V,67.9,F,*74\r\n$SDDBT,0.0,f,0.0,M,0.0,F*06\r\n$GPRMC,131345.00,A,4446.5820,N,00039.6761,W,0.0,167.0,120417,,*20\r\n$TLBTI,12.4,V,67.9,F,*74\r\n<DateTime/>
<DateTime11:36:43,2017-04-12>$SDDBT,0.0,f,0.0,M,0.0,F*06\r\n$GPRMC,131346.00,A,4446.5820,N,00039.6761,W,0.0,167.0,120417,,*23\r\n$TLBTI,12.4,V,67.9,F,*74\r\n<DateTime/>
<DateTime11:36:44,2017-04-12>$SDDBT,0.0,f,0.0,M,0.0,F*06\r\n$GPRMC,131347.00,A,4446.5820,N,00039.6761,W,0.0,167.0,120417,,*22\r\n$TLBTI,12.4,V,67.9,F,*74\r\n<DateTime/>
<DateTime11:36:45,2017-04-12>$SDDBT,0.0,f,0.0,M,0.0,F*06\r\n$GPRMC,131348.00,A,4446.5820,N,00039.6761,W,0.0,167.0,120417,,*2D\r\n$TLBTI,12.4,V,67.9,F,*74\r\n$SDDBT,0.0,f,0.0,M,0.0,F*06\r\n<DateTime/>
<DateTime11:36:46,2017-04-12>$GPRMC,131349.00,A,4446.5820,N,00039.6760,W,0.0,167.0,120417,,*2D\r\n$TLBTI,12.4,V,67.9,F,*74\r\n$SDDBT,0.0,f,0.0,M,0.0,F*06\r\n<DateTime/>
<DateTime11:36:47,2017-04-12>$GPRMC,131350.00,A,4446.5820,N,00039.6760,W,0.0,167.0,120417,,*25\r\n$TLBTI,12.4,V,67.9,F,*74\r\n$SDDBT,0.0,f,0.0,M,0.0,F*06\r\n<DateTime/>
<DateTime11:36:48,2017-04-12>$GPRMC,131351.00,A,4446.5820,N,00039.6760,W,0.0,167.0,120417,,*24\r\n$TLBTI,12.4,V,67.9,F,*74\r\n$SDDBT,0.0,f,0.0,M,0.0,F*06\r\n$GPRMC,131351.00,A,4446.5820,N,00039.6760,W,0.0,167.0,120417,,*24\r\n<DateTime/>
<DateTime11:36:49,2017-04-12>$TLBTI,12.4,V,67.9,F,*74\r\n$SDDBT,0.0,f,0.0,M,0.0,F*06\r\n$GPRMC,131352.00,A,4446.5820,N,00039.6759,W,0.0,167.0,120417,,*2D\r\n<DateTime/>
<DateTime11:36:50,2017-04-12>$TLBTI,12.4,V,67.9,F,*74\r\n$SDDBT,0.0,f,0.0,M,0.0,F*06\r\n$GPRMC,131353.00,A,4446.5819,N,00039.6760,W,0.0,167.0,120417,,*2C\r\n<DateTime/>
<DateTime11:36:51,2017-04-12>$TLBTI,12.4,V,67.9,F,*74\r\n$SDDBT,0.0,f,0.0,M,0.0,F*06\r\n$GPRMC,131354.00,A,4446.5819,N,00039.6760,W,0.0,167.0,120417,,*2B\r\n$TLBTI,12.4,V,67.9,F,*74\r\n<DateTime/>
<DateTime11:36:52,2017-04-12>$SDDBT,0.0,f,0.0,M,0.0,F*06\r\n$GPRMC,131355.00,A,4446.5819,N,00039.6760,W,0.0,166.0,120417,,*2B\r\n$TLBTI,12.4,V,67.9,F,*74\r\n<DateTime/>
<DateTime11:36:53,2017-04-12>$SDDBT,0.0,f,0.0,M,0.0,F*06\r\n$GPRMC,131356.00,A,4446.5819,N,00039.6760,W,0.0,167.0,120417,,*29\r\n$TLBTI,12.4,V,67.9,F,*74\r\n<DateTime/>
<DateTime11:36:54,2017-04-12>$SDDBT,0.0,f,0.0,M,0.0,F*06\r\n$GPRMC,131357.00,A,4446.5819,N,00039.6760,W,0.0,167.0,120417,,*28\r\n$TLBTI,12.4,V,67.9,F,*74\r\n$SDDBT,0.0,f,0.0,M,0.0,F*06\r\n<DateTime/>
<DateTime11:36:55,2017-04-12>$GPRMC,131358.00,A,4446.5818,N,00039.6760,W,0.0,167.0,120417,,*26\r\n$TLBTI,12.4,V,67.9,F,*74\r\n$SDDBT,0.0,f,0.0,M,0.0,F*06\r\n<DateTime/>
<DateTime11:36:56,2017-04-12>$GPRMC,131359.00,A,4446.5818,N,00039.6761,W,0.0,167.0,120417,,*26\r\n$TLBTI,12.4,V,67.9,F,*74\r\n$SDDBT,0.0,f,0.0,M,0.0,F*06\r\n<DateTime/>
<DateTime11:36:57,2017-04-12>$GPRMC,131400.00,A,4446.5818,N,00039.6761,W,0.0,167.0,120417,,*2D\r\n$TLBTI,12.4,V,67.9,F,*74\r\n$SDDBT,0.0,f,0.0,M,0.0,F*06\r\n$GPRMC,131400.00,A,4446.5817,N,00039.6762,W,0.0,167.0,120417,,*21\r\n<DateTime/>
<DateTime11:36:58,2017-04-12>$TLBTI,12.4,V,67.9,F,*74\r\n$SDDBT,0.0,f,0.0,M,0.0,F*06\r\n$GPRMC,131401.00,A,4446.5817,N,00039.6762,W,0.0,167.0,120417,,*20\r\n<DateTime/>
